{"216": {"location": {"lat": -8.70915735, "lon": 115.258627167028}, "name": "Puri Santrian", "address": {"country": "Indonesia", "street": "Jl. Cemara 35"}}, "217": {"location": {"lat": -8.7332892, "lon": 115.1660191}, "name": "Bintang Kuta Hotel", "address": {"country": "Indonesia", "street": "Jalan Kartika Plaza"}}, "214": {"location": {"lat": 10.7319434, "lon": 7.662829}, "name": "Amana Villas", "address": {"country": null, "street": null}}, "215": {"location": {"lat": -8.7322105, "lon": 115.2123544}, "name": "The Puri Nusa Dua", "address": {"country": "Indonesia", "street": "Jalan Raya Nusa Dua Selatan"}}, "212": {"location": {"lat": 47.5581077, "lon": 7.5878261}, "name": "The Bale", "address": {"country": null, "street": null}}, "213": {"name": "Swiss-Belinn Legian", "address": {"country": "Indonesia", "street": "Jl. Padma Utara, Legian,"}}, "210": {"name": "Bali Mandira Beach Resort & Spa", "address": {"country": null, "street": null}}, "211": {"name": "Park Regis Kuta Bali", "address": {"country": "Indonesia", "street": "Jalan Raya Kuta 88"}}, "165": {"name": "Ulu Segara Luxury Suites & Villas", "address": {"country": "Indonesia", "street": "Jl. Raya Nusa Dua Selatan"}}, "264": {"name": "The Trans Resort Bali", "address": {"country": null, "street": null}}, "265": {"location": {"lat": -8.7236315, "lon": 115.1697356}, "name": "Grand Inna Kuta", "address": {"country": "Indonesia", "street": "Jalan Pantai Kuta No.1"}}, "218": {"location": {"lat": 40.2678429, "lon": 22.5970916}, "name": "White Rose Hotel & Villas", "address": {"country": "Indonesia", "street": "Jl Legian Kuta"}}, "219": {"name": "Anantara Bali Uluwatu Resort & Spa Bali", "address": {"country": null, "street": null}}, "133": {"name": "Ibis Styles Bali Kuta Legian", "address": {"country": "Indonesia", "street": "Jalan Dewi Sri No 17"}}, "132": {"name": "Kind Villa Bintang Resort & Spa", "address": {"country": "Indonesia", "street": "Pratama Street"}}, "131": {"location": {"lat": -8.5203344, "lon": 115.257504}, "name": "Saren Indah Hotel", "address": {"country": null, "street": null}}, "130": {"name": "The Purist Villas and Spa", "address": {"country": null, "street": null}}, "137": {"name": "The Mansion Resort Hotel & Spa", "address": {"country": "Indonesia", "street": "Jl. Penestanan, Sayan"}}, "136": {"location": {"lat": 39.9490906, "lon": -75.1648643535908}, "name": "Love F Hotel", "address": {"country": "Indonesia", "street": "Raya Legian Street No. 121"}}, "135": {"name": "WakaGangga", "address": {"country": "Indonesia", "street": "Jl. Pantai Yeh Gangga, Desa Sudimara"}}, "134": {"name": "Nandini Bali Resort & Spa Ubud", "address": {"country": "Indonesia", "street": null}}, "139": {"location": {"lat": -8.5122612, "lon": 115.2380542}, "name": "Bambu Indah", "address": {"country": "Indonesia", "street": "Banjar Baung"}}, "138": {"name": "Patra Jasa Bali Resort & Villas", "address": {"country": "Indonesia", "street": "Jl. Ir. H. Juanda"}}, "166": {"name": "Ibis Styles Bali Benoa", "address": {"country": "Indonesia", "street": "Jl Pratama 57A"}}, "24": {"name": "Nusa Dua Retreat and Spa", "address": {"country": "Indonesia", "street": "JL.Melasti II No 88, Kutuh Nusa Dua"}}, "25": {"name": "Tarci Bungalow", "address": {"country": "Indonesia", "street": "Jungutbatu"}}, "26": {"location": {"lat": 36.59511805, "lon": -4.52296614530043}, "name": "B Hotel Bali", "address": {"country": "Indonesia", "street": "Jl. Imam Bonjol No. 508"}}, "27": {"location": {"lat": -8.4795438, "lon": 115.4414462}, "name": "Surya Shanti Villa", "address": {"country": "Indonesia", "street": "Br. Tebola"}}, "20": {"name": "Destiny Boutique Hotel", "address": {"country": "Indonesia", "street": "Jl. Drupadi no. 10"}}, "21": {"name": "Alila Villas Soori", "address": {"country": "Indonesia", "street": "Banjar Dukuh, Desa Kelating"}}, "22": {"name": "Spa Village Resort Tembok Bali", "address": {"country": null, "street": null}}, "23": {"name": "Lembongan Beach Club and Resort", "address": {"country": null, "street": null}}, "160": {"location": {"lat": 44.2989485, "lon": 9.4804466}, "name": "The One Villa", "address": {"country": "Indonesia", "street": "JL. Cendrawasih No. 99, Petitenget"}}, "28": {"name": "HARRIS Hotel & Residences Riverview Kuta", "address": {"country": null, "street": null}}, "29": {"location": {"lat": -8.7227319, "lon": 115.1759002}, "name": "Kuta Station Hotel", "address": {"country": "Indonesia", "street": "8x Kartika Plaza Street"}}, "161": {"location": {"lat": -8.4998958, "lon": 115.5376898}, "name": "Alila Manggis", "address": {"country": "Indonesia", "street": "Buitan"}}, "289": {"location": {"lat": -8.6847833, "lon": 115.15340230553}, "name": "The Samaya Bali", "address": {"country": "Indonesia", "street": "Jl. Laksmana"}}, "0": {"location": {"lat": -8.8016122, "lon": 115.2239813}, "name": "The Grand Bali Nusa Dua", "address": {"country": null, "street": null}}, "4": {"location": {"lat": -8.703718, "lon": 115.1683313}, "name": "All Seasons Legian Bali", "address": {"country": null, "street": null}}, "331": {"location": {"lat": -8.73304615, "lon": 115.176354445945}, "name": "BEST WESTERN Kuta Villa", "address": {"country": "Indonesia", "street": "Jl. Nyang Nyang Sari No. 2"}}, "281": {"name": "Courtyard by Marriott Bali Seminyak", "address": {"country": null, "street": null}}, "8": {"name": "Balibaliku Beach Front Luxury Private Pool Villa", "address": {"country": "Indonesia", "street": "Jl. Bukit Permai 5A, Jimbaran - Bali"}}, "283": {"name": "Four Seasons Resort Bali at Sayan", "address": {"country": null, "street": null}}, "163": {"location": {"lat": -8.6581322, "lon": 115.130226093112}, "name": "Hotel Tugu Bali", "address": {"country": "Indonesia", "street": "Jl Pantai Batu Bolong"}}, "285": {"name": "Fairmont Sanur Beach Bali", "address": {"country": null, "street": null}}, "284": {"name": "Luna2 Studiotel", "address": {"country": null, "street": null}}, "287": {"name": "Padma Resort Legian", "address": {"country": null, "street": null}}, "286": {"name": "The St. Regis Bali Resort", "address": {"country": null, "street": null}}, "119": {"name": "Villa Air Bali Boutique Resort & Spa", "address": {"country": null, "street": null}}, "271": {"name": "The Kana Kuta", "address": {"country": "Indonesia", "street": "8, Setiabudi street, Kuta"}}, "258": {"location": {"lat": -8.772584, "lon": 115.1727816}, "name": "Jamahal Private Resort & SPA", "address": {"country": null, "street": null}}, "120": {"name": "Grand Istana Rama Hotel Bali", "address": {"country": null, "street": null}}, "121": {"name": "Mercure Resort Sanur", "address": {"country": null, "street": null}}, "122": {"name": "Villa Sarna Ubud", "address": {"country": "Indonesia", "street": "Banjar Tangkup"}}, "123": {"name": "Artemis Villa and Hotel", "address": {"country": "Indonesia", "street": "JI.Camplung Tanduk"}}, "124": {"location": {"lat": 13.6913546, "lon": -89.2439113}, "name": "Mega Boutique Hotel", "address": {"country": "Indonesia", "street": "Jalan by Pass Ngurah Rai No 259, Simpang Siur"}}, "125": {"name": "Hu'u Villas Bali", "address": {"country": null, "street": null}}, "126": {"name": "Fivelements Puri Ahimsa", "address": {"country": null, "street": null}}, "127": {"location": {"lat": -8.4407977, "lon": 114.9856043}, "name": "Hotel Vila Lumbung", "address": {"country": "Indonesia", "street": "Jalan Raya Petitenget, No. 1000 X"}}, "128": {"name": "The Akmani Legian", "address": {"country": "Indonesia", "street": "Jalan Raya Legian No. 91"}}, "129": {"location": {"lat": -8.7195632, "lon": 115.1748113}, "name": "Legian Paradiso Hotel", "address": {"country": "Indonesia", "street": "Jalan Legian No. 118, Denpasar"}}, "269": {"name": "Mulia Resort", "address": {"country": null, "street": null}}, "268": {"location": {"lat": -8.8445387, "lon": 115.1649958}, "name": "Karma Kandara", "address": {"country": null, "street": null}}, "167": {"name": "The Gangsa Private Villa by Kayumanis", "address": {"country": "Indonesia", "street": "Jalan Tirta Akasa 28"}}, "118": {"name": "Bali Niksoma Boutique Beach Resort", "address": {"country": "Indonesia", "street": "Jl. Padma Utara Legian Kaja"}}, "59": {"name": "The Layar - Designer Villas and Spa", "address": {"country": null, "street": null}}, "58": {"location": {"lat": 45.5464155, "lon": -0.2173035}, "name": "Grand La Villais Hotel", "address": {"country": "Indonesia", "street": "Jl. Pangkung Sari, Banjar Taman"}}, "55": {"location": {"lat": 5.5783766, "lon": 95.3287785}, "name": "Mulia Villas", "address": {"country": null, "street": null}}, "54": {"name": "Peneeda View Beach Hotel", "address": {"country": "Indonesia", "street": "Jl, Danau Tamblingan 89"}}, "57": {"name": "The Radiant Hotel and Spa", "address": {"country": "Indonesia", "street": "Jl. Puri Grenceng 46"}}, "56": {"location": {"lat": -8.2774092, "lon": 115.5918869}, "name": "Tulamben Wreck Divers Resort", "address": {"country": null, "street": null}}, "51": {"name": "Sun Island Hotel Kuta", "address": {"country": "Indonesia", "street": "Jl. Kartika Plaza 88"}}, "50": {"location": {"lat": 48.8271845, "lon": 2.3572886}, "name": "Club Med Bali", "address": {"country": null, "street": null}}, "53": {"name": "Chapung SeBali Resort and Spa", "address": {"country": "Indonesia", "street": "Jalan Raya Sebali, Keliki"}}, "52": {"name": "Swiss-Belresort Watu Jimbar", "address": {"country": "Indonesia", "street": "Jl. Danau Tamblingan No. 99A"}}, "259": {"name": "Citadines Kuta Beach Bali", "address": {"country": "Indonesia", "street": "Jalan Pantai Kuta"}}, "312": {"name": "Kamandalu Ubud", "address": {"country": null, "street": null}}, "298": {"location": {"lat": -8.51287745, "lon": 115.256748333591}, "name": "Komaneka at Bisma", "address": {"country": "Indonesia", "street": "Jalan Bisma"}}, "299": {"name": "Wapa di Ume Resort and Spa", "address": {"country": null, "street": null}}, "296": {"location": {"lat": 36.6068458, "lon": -4.50993729201848}, "name": "Fontana Hotel Bali", "address": {"country": "Indonesia", "street": "Jl. Dewi Sri 68, Legian"}}, "297": {"name": "Four Seasons Resort Bali at Jimbaran Bay", "address": {"country": null, "street": null}}, "294": {"name": "Komaneka at Monkey Forest", "address": {"country": "Indonesia", "street": "Jalan Monkey Forest"}}, "295": {"location": {"lat": -8.7600158, "lon": 115.2216144}, "name": "Novotel Bali Benoa", "address": {"country": null, "street": null}}, "292": {"location": {"lat": -8.491387, "lon": 115.2469781}, "name": "Kupu Kupu Barong Villas and Tree Spa", "address": {"country": null, "street": null}}, "293": {"location": {"lat": -8.5050009, "lon": 115.5577204}, "name": "Rama Candidasa Resort & Spa", "address": {"country": "Indonesia", "street": "Jl Raya Sengkidu, Candidasa Beach"}}, "290": {"location": {"lat": 33.5838384, "lon": -112.3209576}, "name": "Grand Mirage Resort", "address": {"country": null, "street": null}}, "291": {"location": {"lat": -8.7178355, "lon": 115.1692272}, "name": "Sheraton Bali Kuta Resort", "address": {"country": null, "street": null}}, "164": {"name": "The Dipan Resort Petitenget", "address": {"country": null, "street": null}}, "201": {"name": "The Breezes Bali Resort & Spa", "address": {"country": "Indonesia", "street": "JL Camplung Tanduk 66"}}, "319": {"location": {"lat": -8.7196994, "lon": 115.1694203}, "name": "Kuta Seaview Boutique Resort & Spa", "address": {"country": "Indonesia", "street": "Jalan Pantai Kuta"}}, "318": {"location": {"lat": -8.79169595, "lon": 115.229956082127}, "name": "Sofitel Bali Nusa Dua Beach Resort", "address": {"country": null, "street": null}}, "199": {"location": {"lat": 4.5719415, "lon": 95.8788341}, "name": "Villa Kubu", "address": {"country": null, "street": null}}, "179": {"name": "Alam Puri Art Museum & Resort", "address": {"country": "Indonesia", "street": "Penatih Village, Jln. Trenggana 108"}}, "200": {"name": "Bali Shangrila Beach Club", "address": {"country": "Indonesia", "street": null}}, "195": {"name": "Seaside Suites Bali", "address": {"country": "Indonesia", "street": "Jl, Pantai Arjuna no. 18, Double Six, Legian Kaja"}}, "194": {"name": "Puri Gangga Resort", "address": {"country": null, "street": null}}, "197": {"name": "Satriya Cottages", "address": {"country": null, "street": null}}, "178": {"location": {"lat": -8.7009418, "lon": 115.1658447}, "name": "Ramada Resort Camakila Bali", "address": {"country": null, "street": null}}, "191": {"name": "The Haven Seminyak Hotel & Suites", "address": {"country": "Indonesia", "street": "Jl. Raya Seminyak 500"}}, "190": {"name": "Mantra Sakala Resort & Beach Club, Bali", "address": {"country": "Indonesia", "street": "Jl. Pratama 95"}}, "193": {"name": "Sun Island Villas & Spa", "address": {"country": "Indonesia", "street": "Jalan Seminyak 188"}}, "192": {"name": "Nefatari Exclusive Villas", "address": {"country": "Indonesia", "street": "Banjar Katiklantang-Desa Singekerta"}}, "115": {"name": "H Sovereign Bali", "address": {"country": null, "street": null}}, "114": {"name": "100 Sunset 2 Hotel", "address": {"country": "Indonesia", "street": "Jl. Sunset Road No.100 C"}}, "88": {"location": {"lat": -1.263695, "lon": 36.8025794}, "name": "The Open House", "address": {"country": null, "street": null}}, "89": {"name": "PING Hotel Seminyak Bali", "address": {"country": "Indonesia", "street": "Jl. Camplung Tanduk no. 28"}}, "111": {"name": "FuramaXclusive Ocean Beach", "address": {"country": "Indonesia", "street": "JI Arjuna 88X"}}, "110": {"name": "Holiday Inn Express Bali Raya Kuta", "address": {"country": null, "street": null}}, "113": {"name": "Royal Candidasa: Royal Bali Beach Club", "address": {"country": "Indonesia", "street": "Puri Buitan"}}, "112": {"name": "Liberty Dive Resort", "address": {"country": "Indonesia", "street": "Jalan Raya Tulamben"}}, "82": {"name": "The Segara Suites", "address": {"country": "Indonesia", "street": "Jl. Segara Windu no. 1"}}, "83": {"name": "Amaroossa Suite Bali", "address": {"country": "Indonesia", "street": "Jl. Kebo Iwa no. 2 Taman Mumbul"}}, "80": {"location": {"lat": 4.612326, "lon": 101.0643102}, "name": "Bunga Permai Hotel", "address": {"country": null, "street": null}}, "81": {"location": {"lat": -6.979248, "lon": 109.6087303}, "name": "The Menjangan", "address": {"country": null, "street": null}}, "86": {"name": "Kayumanis Jimbaran Private Estate & Spa", "address": {"country": "Indonesia", "street": "Jalan Yoga Perkanti"}}, "87": {"location": {"lat": -8.5022511, "lon": 115.2521587}, "name": "Agung Raka Resort & Villas", "address": {"country": "Indonesia", "street": "Jl. Pengosekan"}}, "84": {"name": "Centra Taum Seminyak Bali", "address": {"country": null, "street": null}}, "85": {"name": "Ananta Legian Hotel", "address": {"country": "Indonesia", "street": "Jl. Werkudara no. 539"}}, "251": {"name": "Hotel Terrace At Kuta", "address": {"country": null, "street": null}}, "304": {"name": "The Seminyak Beach Resort & Spa", "address": {"country": null, "street": null}}, "198": {"name": "Mercure Bali Legian", "address": {"country": null, "street": null}}, "256": {"name": "Holiday Inn Express Bali Kuta Square", "address": {"country": null, "street": null}}, "206": {"location": {"lat": -8.6862504, "lon": 115.2626219}, "name": "Kejora Suites", "address": {"country": "Indonesia", "street": "Jalan Danau Tamblingan No 25"}}, "226": {"name": "Furama Villas & Spa Ubud", "address": {"country": "Indonesia", "street": "Jalan Raya Mambal"}}, "257": {"location": {"lat": 12.94686925, "lon": 9.89163282709927}, "name": "Damai", "address": {"country": "Indonesia", "street": "Jalan Damai"}}, "3": {"name": "The Seminyak Suite Private Villa", "address": {"country": "Indonesia", "street": "Jalan Raya Seminyak No 17"}}, "177": {"name": "EDEN Hotel Kuta Bali - Managed by Tauzia", "address": {"country": null, "street": null}}, "254": {"name": "Awarta Nusa Dua Luxury Villas & Spa", "address": {"country": null, "street": null}}, "7": {"name": "Ungasan Hotel & Convention Center", "address": {"country": "Indonesia", "street": "Jl. Raya Uluwatu, Br. Giri Dharma"}}, "247": {"location": {"lat": -8.7367699, "lon": 115.1658184}, "name": "Aston Kuta Hotel & Residence", "address": {"country": "Indonesia", "street": "Jl. Wana Segara No. 2-5"}}, "273": {"location": {"lat": -8.8172176, "lon": 115.0925586}, "name": "Alila Villas Uluwatu", "address": {"country": "Indonesia", "street": "Jl Belimbing Sari Banjar Tambiyak Desa Pecatu"}}, "255": {"location": {"lat": -8.7734695, "lon": 115.1720429}, "name": "Gending Kedis Villas & Spa Estate", "address": {"country": "Indonesia", "street": "Jalan Karang Mas Sejahtera"}}, "308": {"name": "Ramayana Resort & Spa", "address": {"country": "Indonesia", "street": "Jalan Bakung Sari"}}, "309": {"name": "Uma by COMO, Ubud", "address": {"country": null, "street": null}}, "300": {"name": "Grand Aston Bali Beach Resort", "address": {"country": "Indonesia", "street": "Jl Pratama No 68x"}}, "301": {"name": "Ayung Resort Ubud", "address": {"country": null, "street": null}}, "302": {"location": {"lat": -8.8042529, "lon": 115.232505584369}, "name": "Grand Hyatt Bali", "address": {"country": null, "street": null}}, "303": {"name": "The Kayon Resort", "address": {"country": "Indonesia", "street": "Jalan Raya Kendran, Tegalalang"}}, "225": {"name": "The Laguna, a Luxury Collection Resort & Spa", "address": {"country": null, "street": null}}, "305": {"name": "Atanaya Hotel", "address": {"country": "Indonesia", "street": "Sunset Road 88A, Kuta"}}, "306": {"name": "The Stones Hotel - Legian Bali, Autograph Collection", "address": {"country": null, "street": null}}, "307": {"name": "Bulgari Resort Bali", "address": {"country": "Indonesia", "street": "Jalan Goa Lempeh, Banjar Dinas Kangin"}}, "245": {"name": "Abi Bali Resort & Villa", "address": {"country": "Indonesia", "street": "Jl. Karang Mas Sejahtera no. 89"}}, "244": {"location": {"lat": -8.5150292, "lon": 115.2605313}, "name": "Ubud Bungalow", "address": {"country": "Indonesia", "street": "Monkey Forest St."}}, "108": {"name": "Santi Mandala", "address": {"country": "Indonesia", "street": "Br Bucuan Batuan, Sukawati"}}, "109": {"location": {"lat": 4.4802043, "lon": 96.336028}, "name": "Tegal Sari", "address": {"country": null, "street": null}}, "241": {"name": "Aria Villas Ubud", "address": {"country": null, "street": null}}, "240": {"name": "Royal Jimbaran: Royal Bali Beach Club", "address": {"country": "Indonesia", "street": "Uluwatu"}}, "243": {"location": {"lat": -8.6922622, "lon": 115.1590014}, "name": "Anantara Seminyak Resort & Spa, Bali", "address": {"country": null, "street": null}}, "242": {"name": "Mutiara Bali Boutique Resort & Villas", "address": {"country": "Indonesia", "street": "Jl. Braban No. 77 x Banjar Taman"}}, "102": {"location": {"lat": -8.7199629, "lon": 115.1702035}, "name": "Kuta Puri Bungalows", "address": {"country": null, "street": null}}, "103": {"name": "Hotel Tjampuhan & Spa", "address": {"country": "Indonesia", "street": "Jl. Raya Tjampuhan"}}, "100": {"location": {"lat": -8.73534465, "lon": 115.167726335913}, "name": "The Vira Bali Hotel", "address": {"country": null, "street": null}}, "101": {"name": "Bhavana Private Villas", "address": {"country": "Indonesia", "street": "Jalan Pangkung Sari, Banjar Taman"}}, "106": {"location": {"lat": 44.6107926, "lon": 11.5217679}, "name": "The Club Villas", "address": {"country": "Indonesia", "street": "Jl. Laksmana"}}, "107": {"name": "Bebek Tepi Sawah Villas & Spa", "address": {"country": null, "street": null}}, "104": {"location": {"lat": -8.5170222, "lon": 115.2644853}, "name": "Biyukukung Suites and Spa", "address": {"country": "Indonesia", "street": "Jalan Sugriwa No 89"}}, "105": {"name": "Batu Karang Lembongan Resort & Day Spa", "address": {"country": null, "street": null}}, "39": {"name": "HARRIS Hotel Bukit Jimbaran", "address": {"country": null, "street": null}}, "38": {"location": {"lat": -8.5170766, "lon": 115.2604064}, "name": "Champlung Sari Hotel", "address": {"country": "Indonesia", "street": "Monkey Forest Street"}}, "33": {"name": "Hotel NEO + Kuta Legian", "address": {"country": "Indonesia", "street": "Jl. Troppozone no. 8 Legian"}}, "32": {"location": {"lat": -1.3110452, "lon": 36.8365224}, "name": "Bounty Hotel", "address": {"country": "Indonesia", "street": "Gang Poppies 2 # 18"}}, "31": {"name": "Puri Dajuma Cottages", "address": {"country": "Indonesia", "street": "Pekutatan"}}, "30": {"location": {"lat": 12.5378702, "lon": 12.5803565}, "name": "Amandari", "address": {"country": "Indonesia", "street": "Jalan Raya Kedewatan"}}, "37": {"location": {"lat": -8.6743257, "lon": 115.15838395}, "name": "Ivory Resort Seminyak", "address": {"country": "Indonesia", "street": "Jln. Raya Petitenget 35, Banjar Umasari"}}, "36": {"location": {"lat": -8.4867148, "lon": 115.2842588}, "name": "Tanah Merah Resort & Gallery", "address": {"country": "Indonesia", "street": "Jl. Melayang"}}, "35": {"location": {"lat": -8.6920709, "lon": 115.1613678}, "name": "Grandmas Seminyak Hotel", "address": {"country": null, "street": null}}, "34": {"location": {"lat": -8.5344381, "lon": 115.4901597}, "name": "Bloo Lagoon Village", "address": {"country": "Indonesia", "street": "Jl. Silayukti"}}, "246": {"name": "Swiss-Belhotel Segara Resort & Spa", "address": {"country": "Indonesia", "street": "Jalan Pura Segara"}}, "310": {"location": {"lat": -8.7214493, "lon": 115.1710618}, "name": "Hard Rock Hotel Bali", "address": {"country": null, "street": null}}, "282": {"name": "Risata Bali Resort & Spa", "address": {"country": "Indonesia", "street": "Jalan Wana Segara"}}, "252": {"location": {"lat": -8.6908357, "lon": 115.1641975}, "name": "L Hotel Seminyak", "address": {"country": null, "street": null}}, "205": {"location": {"lat": -8.7949481, "lon": 115.2167529}, "name": "Mercure Bali Nusa Dua", "address": {"country": null, "street": null}}, "223": {"name": "Bali Ginger Suites", "address": {"country": null, "street": null}}, "334": {"name": "Uppala Villa Seminyak", "address": {"country": "Indonesia", "street": "Jalan Intan Permai No.18"}}, "176": {"name": "Hotel Santika Siligita Nusa Dua", "address": {"country": "Indonesia", "street": "Jalan Pintas Siligita 3A Banjar Peminge"}}, "330": {"name": "Amarterra Villas Bali Nusa Dua - MGallery Collection", "address": {"country": null, "street": null}}, "333": {"location": {"lat": -8.6866624, "lon": 115.1644302}, "name": "Uma Sapna", "address": {"country": null, "street": null}}, "332": {"location": {"lat": -8.6229777, "lon": 115.0904512}, "name": "Pan Pacific Nirwana Bali Resort", "address": {"country": null, "street": null}}, "60": {"location": {"lat": 2.0728096, "lon": 102.5613157}, "name": "The Taman Ayu", "address": {"country": "Indonesia", "street": "Jl. Petitenget, Kerobokan"}}, "61": {"name": "The Ahimsa Estate", "address": {"country": "Indonesia", "street": "Jl. Sari Dewi No. 1"}}, "62": {"location": {"lat": 48.386565, "lon": 2.9035474}, "name": "Le Grande Bali", "address": {"country": "Indonesia", "street": "Block 5 - Pecatu Indah Resort"}}, "63": {"name": "U Paasha Seminyak", "address": {"country": "Indonesia", "street": "Jl. Laksmana No.77"}}, "64": {"name": "Taman Harum Cottages", "address": {"country": "Indonesia", "street": "Jalan Raya Mas"}}, "65": {"name": "Puri Wirata Dive Resort and Spa Amed", "address": {"country": "Indonesia", "street": "Jl. Raya Bunutan"}}, "66": {"name": "Puri Saron Seminyak", "address": {"country": "Indonesia", "street": "Jl. Camplung Tanduk"}}, "67": {"name": "Nirwana Resort and Spa", "address": {"country": null, "street": null}}, "68": {"name": "Svarga Loka Resort", "address": {"country": "Indonesia", "street": "Jl.Campuhan 1, Penestanan Kelod"}}, "69": {"location": {"lat": -8.805178, "lon": 115.2232767}, "name": "Amanusa", "address": {"country": "Indonesia", "street": "Jl Nusa Dua Selatan"}}, "175": {"name": "Peppers Seminyak", "address": {"country": null, "street": null}}, "174": {"location": {"lat": -8.5007591, "lon": 115.5275407}, "name": "Amankila", "address": {"country": "Indonesia", "street": "Manggis"}}, "173": {"name": "The Sungu Resort & Spa", "address": {"country": "Indonesia", "street": "Jalan Raya Penestanan ( Jl Campuhan 1) Ubud"}}, "172": {"name": "Matahari Tulamben Resort, Dive & SPA", "address": {"country": "Indonesia", "street": "Jl. Kubu-Abang"}}, "171": {"name": "Alindra Villa", "address": {"country": "Indonesia", "street": "Jl. Aneka Warga No. 12"}}, "170": {"name": "Puri Wulandari Boutique Resort", "address": {"country": "Indonesia", "street": "Jl. Raya Kedewatan"}}, "203": {"location": {"lat": -8.6900334, "lon": 115.2651812}, "name": "Griya Santrian", "address": {"country": "Indonesia", "street": "Danau Tamblingan 47"}}, "222": {"name": "The Legian Bali \u2013 a GHM hotel", "address": {"country": null, "street": null}}, "288": {"location": {"lat": -8.7332892, "lon": 115.1660191}, "name": "Ramada Bintang Bali Resort", "address": {"country": "Indonesia", "street": "Jalan Kartika Plaza, P.O. Box 1068, Bali 80361"}}, "181": {"name": "Karma Jimbaran", "address": {"country": null, "street": null}}, "253": {"name": "Kayumanis Ubud Private Villa & Spa", "address": {"country": "Indonesia", "street": "Sayan Village Ubud P.O. Box 777"}}, "248": {"name": "Pita Maha Resort and Spa", "address": {"country": "Indonesia", "street": "Jl. Raya Sanggingan"}}, "182": {"name": "Puri Sebali Resort", "address": {"country": null, "street": null}}, "183": {"name": "Harris Hotel Seminyak", "address": {"country": null, "street": null}}, "180": {"name": "Zen Resort Bali", "address": {"country": "Indonesia", "street": "PO Box 18, Ds. Ume Anyar"}}, "2": {"location": {"lat": -8.6868124, "lon": 115.1553708}, "name": "The Oberoi Bali", "address": {"country": null, "street": null}}, "162": {"location": {"lat": 35.6333333, "lon": 35.95}, "name": "Le Jardin Villas", "address": {"country": null, "street": null}}, "187": {"name": "The Royal Eighteen Resort and Spa", "address": {"country": "Indonesia", "street": "Jalan Singosari 18"}}, "184": {"name": "The Payogan Villa Resort & Spa", "address": {"country": "Indonesia", "street": "Jl. Cocoa 2, no. 77 Banjar, Bunutan, Desa Kedewatan, P.O. BOX 999"}}, "6": {"name": "Junjungan Ubud Hotel and Spa", "address": {"country": null, "street": null}}, "220": {"location": {"lat": 51.89652075, "lon": -8.46333828518258}, "name": "The Elysian", "address": {"country": null, "street": null}}, "186": {"location": {"lat": 6.34866395, "lon": 2.39285886227315}, "name": "The Bene Hotel", "address": {"country": null, "street": null}}, "188": {"location": {"lat": 40.40164, "lon": 0.38123}, "name": "Natura Resort and Spa", "address": {"country": "Indonesia", "street": "Banjar Laplapan"}}, "189": {"name": "Mara River Safari Lodge", "address": {"country": "Indonesia", "street": "Jl. Prof Ida Bagus Mantra Km 19"}}, "311": {"location": {"lat": -8.7808786, "lon": 115.2252055}, "name": "Conrad Bali", "address": {"country": null, "street": null}}, "202": {"name": "Sun Boutique Hotel Managed by BENCOOLEN", "address": {"country": "Indonesia", "street": "Jalan Sunset no 23"}}, "313": {"name": "Banyan Tree Ungasan, Bali", "address": {"country": null, "street": null}}, "196": {"name": "The Ulin Villas & Spa", "address": {"country": null, "street": null}}, "221": {"name": "Grand Whiz Hotel Nusa Dua", "address": {"country": "Indonesia", "street": "Block T , Kawasan BTDC"}}, "317": {"location": {"lat": -8.4939982, "lon": 115.2775511}, "name": "Viceroy Bali", "address": {"country": null, "street": null}}, "185": {"name": "18 Suite Villa Loft", "address": {"country": "Indonesia", "street": "Jl. Kartika Plaza Pudak Sari No. 18"}}, "315": {"name": "RIMBA Jimbaran Bali by AYANA", "address": {"country": null, "street": null}}, "316": {"location": {"lat": -8.70958255, "lon": 115.16769454082}, "name": "Pullman Bali Legian Nirwana", "address": {"country": null, "street": null}}, "99": {"location": {"lat": 25.7576432, "lon": -108.9830106}, "name": "The Lovina", "address": {"country": null, "street": null}}, "98": {"name": "Hotel Horison Seminyak", "address": {"country": "Indonesia", "street": "Jl. Arjuna (Double Six)"}}, "168": {"location": {"lat": -8.7083565, "lon": 115.167191}, "name": "Legian Beach Hotel", "address": {"country": null, "street": null}}, "169": {"location": {"lat": -3.7009423, "lon": 137.9646835}, "name": "The Mulia", "address": {"country": null, "street": null}}, "229": {"name": "Vasanti Seminyak Resort", "address": {"country": "Indonesia", "street": "Jalan Petitenget Gg. Cendrawasih no. 99DS"}}, "228": {"location": {"lat": -8.7891309, "lon": 115.1430332}, "name": "The Ritz-Carlton, Bali", "address": {"country": null, "street": null}}, "91": {"location": {"lat": -8.6908357, "lon": 115.1641975}, "name": "The Alea Hotel Seminyak", "address": {"country": "Indonesia", "street": "Jl. Cenderawasih no. 78"}}, "90": {"name": "Grand Balisani Suites", "address": {"country": "Indonesia", "street": "Jalan Batubelig Beach"}}, "93": {"name": "Keraton Jimbaran Resort & Spa", "address": {"country": "Indonesia", "street": "Jalan Mrajapati"}}, "92": {"location": {"lat": -8.7160233, "lon": 115.1741874}, "name": "The Niche Bali", "address": {"country": "Indonesia", "street": "JL. 190"}}, "95": {"name": "The Sanyas Suite Seminyak", "address": {"country": "Indonesia", "street": "Jl. Cendrawasih No. 9"}}, "94": {"name": "Bliss Surfer Hotel", "address": {"country": "Indonesia", "street": "Jl. Sriwijaya, No. 88"}}, "97": {"name": "Sense Hotel Seminyak", "address": {"country": "Indonesia", "street": "Jalan Kayu Jati No. 5"}}, "96": {"location": {"lat": 32.252478, "lon": 77.1823018}, "name": "The Tusita Hotel", "address": {"country": "Indonesia", "street": "Jalan Kartika Plaza 9x"}}, "11": {"location": {"lat": 5.9094814, "lon": 116.096415}, "name": "Villa Kayu Raja", "address": {"country": "Indonesia", "street": "Jalan Lebak Sari No: 18 Petitenget"}}, "10": {"name": "Pradha Villas", "address": {"country": null, "street": null}}, "13": {"name": "Ize Seminyak", "address": {"country": null, "street": null}}, "12": {"location": {"lat": -8.4616192, "lon": 115.2405022}, "name": "Alila Ubud", "address": {"country": "Indonesia", "street": "Desa Melinggih Kelod"}}, "15": {"name": "Astagina Resort", "address": {"country": null, "street": null}}, "14": {"name": "Plataran Ubud Hotel & Spa", "address": {"country": "Indonesia", "street": "Jl. Hanoman, Pengosekan"}}, "17": {"location": {"lat": 54.1617469, "lon": 15.486014}, "name": "Aqua Villa", "address": {"country": "Indonesia", "street": "Jalan Klecung No. 38x, Banjar Umalas"}}, "16": {"location": {"lat": 45.3969724, "lon": 8.5398008}, "name": "I-Villa", "address": {"country": null, "street": null}}, "19": {"name": "Ion Bali Benoa Hotel", "address": {"country": null, "street": null}}, "18": {"location": {"lat": -8.7937655, "lon": 115.230306267951}, "name": "Bali Nusa Dua Hotel", "address": {"country": "Indonesia", "street": "Kawasan Pariwisata Nusa Dua Lot NW/1"}}, "314": {"name": "The Kunja Villas & Spa", "address": {"country": "Indonesia", "street": "Jalan Lebak Sari 8 Petitenget"}}, "117": {"location": {"lat": 51.9041671, "lon": 4.48463397116437}, "name": "Dewi Sri Hotel", "address": {"country": "Indonesia", "street": "Jalan Legian"}}, "250": {"name": "The Magani Hotel and Spa", "address": {"country": "Indonesia", "street": "Jl. Melasti, Legian Kelod"}}, "116": {"name": "BEST WESTERN PREMIER Sunset Road Kuta", "address": {"country": "Indonesia", "street": "Jl. Sunset Road No 9, Seminyak-Kuta"}}, "274": {"name": "Ramada Encore Bali Seminyak", "address": {"country": "Indonesia", "street": "Jl. Dewi Saraswati III"}}, "204": {"name": "Kenanga Boutique Hotel", "address": {"country": "Indonesia", "street": "Jalan Raya Lungsiakan"}}, "275": {"location": {"lat": -8.491387, "lon": 115.2469781}, "name": "The Villas Bali Hotel & Spa", "address": {"country": null, "street": null}}, "151": {"name": "Rijasa Agung - Bali Ubud Luxury Hotel Resort Villa", "address": {"country": "Indonesia", "street": "Banjar Begawan"}}, "150": {"name": "Disini Luxury Spa Villas", "address": {"country": "Indonesia", "street": "Mertasari 28"}}, "153": {"name": "Maharani Beach Hotel", "address": {"country": "Indonesia", "street": "Jalan Pantai Kuta, Corner Poppies 1"}}, "152": {"name": "Puri Sunia Resort", "address": {"country": null, "street": null}}, "155": {"name": "Sun Island Hotel Legian", "address": {"country": "Indonesia", "street": "Jl. Legian 123"}}, "154": {"location": {"lat": -8.7219422, "lon": 115.1847735}, "name": "Ibis Styles Bali Kuta Circle", "address": {"country": "Indonesia", "street": "Jalan Bypass Ngurah Rai"}}, "157": {"name": "Belmond Jimbaran Puri", "address": {"country": null, "street": null}}, "156": {"name": "Komune Resort, Keramas Beach Bali", "address": {"country": null, "street": null}}, "159": {"name": "HARRIS Resort Kuta Beach", "address": {"country": null, "street": null}}, "158": {"name": "Villa Karisa", "address": {"country": "Indonesia", "street": "Drupadi Street no. 100X"}}, "277": {"name": "Kuta Central Park Hotel", "address": {"country": "Indonesia", "street": "Jalan Patih Jelantik"}}, "234": {"location": {"lat": -8.89046125, "lon": 116.27719372783}, "name": "Kuta Angel Hotel", "address": {"country": "Indonesia", "street": "Jl. Pantai Kuta no. 33, Br. Pande Mas"}}, "322": {"location": {"lat": -8.7237498, "lon": 115.1711952}, "name": "Kuta Paradiso Hotel", "address": {"country": "Indonesia", "street": "Jl. Kartika Plaza"}}, "238": {"name": "The Chedi Club Tanah Gajah, Ubud, Bali \u2013 a GHM hotel", "address": {"country": null, "street": null}}, "239": {"name": "Villa Seminyak Estate & Spa", "address": {"country": "Indonesia", "street": "Jl. Baik Baik"}}, "279": {"name": "KajaNe Mua Private Villa & Mansion", "address": {"country": "Indonesia", "street": "Monkey Forest Road"}}, "207": {"location": {"lat": -8.5063477, "lon": 115.2540036}, "name": "Sri Ratih Cottages", "address": {"country": "Indonesia", "street": "Jl. Campuhan 1, Penestanan Kelod"}}, "235": {"name": "Maca Villas & Spa", "address": {"country": null, "street": null}}, "236": {"location": {"lat": 5.216667, "lon": 7.2}, "name": "The Amala", "address": {"country": null, "street": null}}, "237": {"name": "Ossotel", "address": {"country": null, "street": null}}, "230": {"location": {"lat": -8.5185229, "lon": 115.2636592}, "name": "Alaya Resort Ubud", "address": {"country": "Indonesia", "street": "Jl. Hanoman"}}, "231": {"location": {"lat": 42.5610325, "lon": -70.97909475}, "name": "Blue Karma Hotel", "address": {"country": null, "street": null}}, "232": {"name": "BEST WESTERN Kuta Beach", "address": {"country": "Indonesia", "street": "Jalan Benesari, Pantai Kuta"}}, "233": {"name": "Dusun Villas Bali", "address": {"country": null, "street": null}}, "224": {"location": {"lat": -8.491387, "lon": 115.2469781}, "name": "Bali Island Villas & Spa", "address": {"country": "Indonesia", "street": "Jl. Raya Petitenget No 469"}}, "280": {"name": "Samabe Bali Suites & Villas", "address": {"country": null, "street": null}}, "48": {"location": {"lat": -32.74885, "lon": 137.63314}, "name": "Sunset Hill", "address": {"country": "Indonesia", "street": "Jalan Bangkiang Sidem 88 Keliki"}}, "49": {"name": "The Griya Villas and Spa", "address": {"country": "Indonesia", "street": "Jl. Bunutan"}}, "46": {"location": {"lat": -8.6835625, "lon": 115.1570803}, "name": "Royal Seminyak: Royal Bali Beach Club", "address": {"country": "Indonesia", "street": "Jl. Kayu aya no.100, Seminyak Square"}}, "47": {"name": "Kupu Kupu Jimbaran & Bamboo Spa by L'Occitane", "address": {"country": null, "street": null}}, "44": {"location": {"lat": -8.4507033, "lon": 115.2353505}, "name": "COMO Shambhala Estate", "address": {"country": null, "street": null}}, "45": {"location": {"lat": 63.843329, "lon": 23.1303631}, "name": "The Grand Sunti", "address": {"country": "Indonesia", "street": "Pengosekan Street"}}, "42": {"location": {"lat": 33.49885055, "lon": -117.151667640973}, "name": "Mahogany Hotel", "address": {"country": "Indonesia", "street": "Jalan Taman Bali No. 1, By Pass Ngurah Rai, Mumbul"}}, "43": {"name": "The Villas at AYANA Resort", "address": {"country": "Indonesia", "street": "Jalan Karang Mas Sejahtera"}}, "40": {"name": "La Joya, Villa & Bungalows", "address": {"country": "Indonesia", "street": "Balangan Beach"}}, "41": {"location": {"lat": 3.201186, "lon": 101.671033}, "name": "Segara Village Hotel", "address": {"country": "Indonesia", "street": "Jl. Segara Ayu"}}, "1": {"location": {"lat": -8.7957821, "lon": 115.230630555362}, "name": "The Westin Resort Nusa Dua", "address": {"country": null, "street": null}}, "323": {"name": "Maya Ubud Resort & Spa", "address": {"country": "Indonesia", "street": "Jl. Gunung Sari"}}, "320": {"name": "Komaneka at Rasa Sayang", "address": {"country": "Indonesia", "street": "Jl Monkey Forest"}}, "321": {"location": {"lat": -8.732632, "lon": 115.1676607}, "name": "Discovery Kartika Plaza Hotel", "address": {"country": "Indonesia", "street": "Jl. Kartika Plaza"}}, "5": {"location": {"lat": 7.0657972, "lon": 125.6832793}, "name": "Bali Garden Beach Resort", "address": {"country": "Indonesia", "street": "Jalan Dewi Sartika, P.O.Box 1062"}}, "327": {"name": "Nusa Dua Beach Hotel & Spa", "address": {"country": null, "street": null}}, "324": {"location": {"lat": 29.22638, "lon": 80.04776}, "name": "Amori Villas", "address": {"country": null, "street": null}}, "325": {"name": "Kayumanis Nusa Dua Private Villa & Spa", "address": {"country": "Indonesia", "street": "BTDC Area"}}, "9": {"name": "The Edelweiss Boutique Hotel Kuta", "address": {"country": "Indonesia", "street": "Jl. Kartika Plaza no. 108"}}, "328": {"location": {"lat": -8.79928435, "lon": 115.232674114859}, "name": "Melia Bali Indonesia", "address": {"country": null, "street": null}}, "329": {"name": "The Kuta Beach Heritage Hotel Bali - Managed by Accor", "address": {"country": null, "street": null}}, "335": {"location": {"lat": -8.82561335, "lon": 115.218575391665}, "name": "Grand Nikko Bali", "address": {"country": "Indonesia", "street": "Jl Raya Nusa Dua Selatan"}}, "272": {"name": "Sol Beach House Benoa Bali by Melia Hotel International", "address": {"country": null, "street": null}}, "146": {"name": "kaMAYA Resort and Villas", "address": {"country": null, "street": null}}, "147": {"name": "Pelangi Bali Hotel", "address": {"country": "Indonesia", "street": "Jalan Camplung Tanduk"}}, "144": {"name": "Poinciana Oceanside Resort & Retreat Centre", "address": {"country": "Indonesia", "street": "Jl. Singaraja Raya - Amplapura"}}, "145": {"location": {"lat": -8.703338, "lon": 115.1688432}, "name": "The 101 Legian", "address": {"country": "Indonesia", "street": "117 Jl. Raya Legian"}}, "142": {"name": "Alam KulKul Boutique Resort", "address": {"country": "Indonesia", "street": "Jalan Pantai Kuta"}}, "143": {"location": {"lat": 41.6916289, "lon": 23.1666339}, "name": "Villa Kresna", "address": {"country": "Indonesia", "street": "Jalan Sarinande 19"}}, "140": {"name": "Candi Beach Cottage", "address": {"country": null, "street": null}}, "141": {"name": "Maya Loka Villas", "address": {"country": null, "street": null}}, "209": {"location": {"lat": -8.1063735, "lon": 115.1303372}, "name": "The Jineng Villas", "address": {"country": null, "street": null}}, "208": {"name": "Double-Six Luxury Hotel Seminyak", "address": {"country": "Indonesia", "street": "No. 66, Double Six Beach"}}, "148": {"name": "Harper Kuta", "address": {"country": "Indonesia", "street": "Jl. Legian No. 73"}}, "149": {"location": {"lat": -8.7219422, "lon": 115.1847735}, "name": "Ibis Bali Kuta", "address": {"country": null, "street": null}}, "77": {"name": "Solaris Hotel Kuta", "address": {"country": "Indonesia", "street": "Jalan Jenggala (ex. Wana Segara)"}}, "76": {"location": {"lat": -8.7175576, "lon": 115.1845735}, "name": "The Sunset Bali Hotel", "address": {"country": "Indonesia", "street": "Jl. Dewi Sri no. 11a"}}, "75": {"name": "Grand Ixora Kuta Resort", "address": {"country": "Indonesia", "street": "Jalan Kartika Plaza No. 92"}}, "74": {"name": "Golden Tulip Devins Hotel Seminyak", "address": {"country": "Indonesia", "street": "Jl. Petitenget, Komplex Villa Kendal No.35"}}, "73": {"name": "Shunyata Villas Bali", "address": {"country": null, "street": null}}, "72": {"name": "Swiss-Belinn Seminyak", "address": {"country": "Indonesia", "street": "Jl. Sunset Road No. 88 S"}}, "71": {"location": {"lat": -7.5314066, "lon": 112.556108}, "name": "Villa Awang Awang", "address": {"country": null, "street": null}}, "70": {"name": "Semara Luxury Villa Resort", "address": {"country": "Indonesia", "street": "Jl Pantai Selatan Gau"}}, "278": {"location": {"lat": -8.78126125, "lon": 115.165661689644}, "name": "Le Meridien Bali Jimbaran", "address": {"country": null, "street": null}}, "79": {"name": "Indiana Kenanga Villas", "address": {"country": null, "street": null}}, "78": {"location": {"lat": 28.8691687, "lon": -13.8219678}, "name": "Sun Royal Hotel", "address": {"country": "Indonesia", "street": "Jl. Sunset Road No.6"}}, "263": {"location": {"lat": -8.7860258, "lon": 115.2257471}, "name": "Bali Tropic Resort and Spa", "address": {"country": "Indonesia", "street": "Jl. Pratama 34A"}}, "249": {"location": {"lat": -8.6776361, "lon": 115.1536317}, "name": "The Kayana Bali", "address": {"country": null, "street": null}}, "262": {"location": {"lat": -8.7208875, "lon": 115.1698011}, "name": "Mercure Kuta Bali", "address": {"country": null, "street": null}}, "227": {"location": {"lat": -8.4793091, "lon": 116.0381771}, "name": "Sudamala Suites & Villas", "address": {"country": null, "street": null}}, "261": {"location": {"lat": 37.3501407, "lon": -2.6686269}, "name": "Villa Semana", "address": {"country": null, "street": null}}, "270": {"name": "Prama Sanur Beach Bali", "address": {"country": "Indonesia", "street": "Jl. Danau Tamblingan P.O. Box 3279"}}, "260": {"name": "Swiss-Belhotel Rainforest", "address": {"country": "Indonesia", "street": "Jl. Sunset Road No.101"}}, "276": {"name": "Tanadewa Luxury Villas & Spa", "address": {"country": null, "street": null}}, "267": {"name": "The Royal Pita Maha", "address": {"country": "Indonesia", "street": "Desa Kedewatan"}}, "326": {"name": "Amadea Resort & Villas", "address": {"country": "Indonesia", "street": "Jalan Laksmana 55"}}, "266": {"name": "The Ubud Village Resort & Spa", "address": {"country": "Indonesia", "street": "Jl. Raya Pengosekan"}}}