{"marrakech": {"133": {"name": "Pullman Marrakech Palmeraie Resort and Spa", "address": {"country": null, "street": null}}, "132": {"name": "Riad Idra", "address": {"country": null, "street": null}}, "131": {"location": {"lat": -5.1291346, "lon": 119.4061217}, "name": "Villa Makassar", "address": {"country": "Morocco", "street": "20 Derb Chtouka"}}, "130": {"name": "Riad Dar Anika", "address": {"country": null, "street": null}}, "137": {"name": "Riad Al Massarah", "address": {"country": null, "street": null}}, "136": {"name": "La Sultana Marrakech", "address": {"country": "Morocco", "street": "403 rue de la kasbah"}}, "135": {"location": {"lat": 48.1331713, "lon": 11.5930323}, "name": "La Mamounia Marrakech", "address": {"country": "Morocco", "street": "Avenue Bab Jdid"}}, "134": {"name": "Riad Kniza", "address": {"country": null, "street": null}}, "139": {"name": "Riad Azoulay", "address": {"country": null, "street": null}}, "138": {"name": "Hotel Framissima les Idrissides", "address": {"country": "Morocco", "street": "av. Mohammed VI"}}, "24": {"name": "Selman Marrakech", "address": {"country": "Morocco", "street": "B.P 24 530 Marrakech Atlas"}}, "25": {"name": "Riad Mariana", "address": {"country": "Morocco", "street": "13 Derb El Boumba"}}, "26": {"location": {"lat": 44.6896955, "lon": -0.4211542}, "name": "Les Deux Tours", "address": {"country": null, "street": null}}, "27": {"name": "Albakech House", "address": {"country": "Morocco", "street": "Lot MH24 Rue Mohammed VI"}}, "20": {"location": {"lat": 31.6281184, "lon": -7.9776212}, "name": "Riad Tamarrakecht", "address": {"country": "Morocco", "street": "132 Derb Aghrab Bab Aylen"}}, "21": {"name": "Les Jardins de Touhina", "address": {"country": "Morocco", "street": "Route de Ouarzazate"}}, "22": {"name": "Riad Tahili & Spa", "address": {"country": null, "street": null}}, "23": {"name": "Beachcomber Royal Palm Marrakech", "address": {"country": null, "street": null}}, "28": {"name": "Hotel & Ryad Art Place Marrakech", "address": {"country": null, "street": null}}, "29": {"name": "Riad Dar Dialkoum", "address": {"country": null, "street": null}}, "0": {"location": {"lat": 39.3308365, "lon": -76.6342346814492}, "name": "Caravanserai", "address": {"country": "Morocco", "street": "264, Ouled Ben Rahmoune"}}, "4": {"name": "Riad Aguerzame", "address": {"country": null, "street": null}}, "8": {"location": {"lat": 31.6268769, "lon": -7.9848098}, "name": "Riad Oasissime", "address": {"country": null, "street": null}}, "87": {"location": {"lat": 46.2751225, "lon": 6.0315888}, "name": "La Villa Nomade", "address": {"country": "Morocco", "street": "7 Derb el Marstane Zaouia El Abbasia Bab Taghzout"}}, "120": {"name": "Riad Menzeh", "address": {"country": null, "street": null}}, "121": {"name": "Dar Ayniwen Villa Hotel", "address": {"country": null, "street": null}}, "122": {"location": {"lat": 51.9015567, "lon": 4.1642707}, "name": "Hotel Atlas", "address": {"country": "Morocco", "street": "50 Rue Sidi Bouloukate Riad Zitoun lakdim"}}, "123": {"name": "Pickalbatros Aqua Fun Club", "address": {"country": "Morocco", "street": "18, Route de l'Ourika"}}, "124": {"location": {"lat": 24.6319692, "lon": 46.7150648}, "name": "Riad 72", "address": {"country": null, "street": null}}, "125": {"location": {"lat": 31.6253224, "lon": -7.9984293}, "name": "Royal Mansour Marrakech", "address": {"country": "Morocco", "street": "Rue Abou Abbas El Sebti"}}, "126": {"location": {"lat": 53.3315387, "lon": 0.2663433}, "name": "Medina Gardens", "address": {"country": "Morocco", "street": "Arset Djenan Lakhdar"}}, "127": {"name": "Riad Assakina", "address": {"country": null, "street": null}}, "128": {"name": "Maison MK", "address": {"country": "Morocco", "street": "14 Derb Lafkih Sbaai"}}, "129": {"name": "Riad Dar Attajmil", "address": {"country": "Morocco", "street": "23, Rue Laksour"}}, "59": {"name": "Riad Les Trois Palmiers El Bacha", "address": {"country": null, "street": null}}, "58": {"name": "Riad Dar Oulhoum", "address": {"country": null, "street": null}}, "55": {"location": {"lat": 58.3528629, "lon": 26.6583572}, "name": "Le Rihani", "address": {"country": "Morocco", "street": "52 Derb El Arsa"}}, "54": {"name": "Riad Melhoun", "address": {"country": null, "street": null}}, "57": {"name": "Riad Hizad", "address": {"country": "Morocco", "street": "80 Derb el Cadi"}}, "56": {"location": {"lat": 51.4166022, "lon": -0.0760161}, "name": "Dar Crystal", "address": {"country": null, "street": null}}, "51": {"name": "Riad Tizwa", "address": {"country": "Morocco", "street": "26 Derb Gueraba"}}, "50": {"location": {"lat": 43.8488345, "lon": 0.6634418}, "name": "L'Heure d'Ete", "address": {"country": "Morocco", "street": "96, sidi Bouloukat"}}, "53": {"name": "Riad Dar Zahia", "address": {"country": null, "street": null}}, "52": {"name": "Riad Reves D'orient", "address": {"country": "Morocco", "street": "44 derd abib allah"}}, "115": {"name": "Palais Namaskar", "address": {"country": null, "street": null}}, "114": {"location": {"lat": 31.6132226, "lon": -7.9873244}, "name": "Riad Hikaya", "address": {"country": null, "street": null}}, "88": {"name": "Riad Dar Thalge", "address": {"country": null, "street": null}}, "89": {"name": "RIad Al Loune", "address": {"country": "Morocco", "street": "77, Derb el Kadi"}}, "111": {"location": {"lat": 31.6281443, "lon": -7.9866523}, "name": "Ryad Chantaco", "address": {"country": null, "street": null}}, "110": {"name": "Riad Zolah", "address": {"country": "Morocco", "street": "114-116 Derb El Hammam"}}, "113": {"name": "Riad La Porte Rouge", "address": {"country": null, "street": null}}, "112": {"location": {"lat": 31.61191545, "lon": -7.98751305251085}, "name": "Les Jardins de la Medina", "address": {"country": null, "street": null}}, "82": {"name": "Riad Romance", "address": {"country": null, "street": null}}, "83": {"location": {"lat": 31.58982735, "lon": -7.98543306856167}, "name": "Al Fassia Aguedal", "address": {"country": "Morocco", "street": "MH 9bis route de l'Ourika"}}, "80": {"name": "Riad Tzarra", "address": {"country": "Morocco", "street": "22 Derb Lalla Azzouna"}}, "81": {"location": {"lat": 31.6314425, "lon": -7.9966019}, "name": "Riad Mur Akush", "address": {"country": null, "street": null}}, "119": {"name": "Riad Farnatchi", "address": {"country": "Morocco", "street": "2 Derb el Farnatchi, Rue Souk el Fassis"}}, "118": {"name": "Riad Les Trois Mages", "address": {"country": null, "street": null}}, "84": {"name": "Hotel & Spa Riad Edward", "address": {"country": "Morocco", "street": "10, Zaouia Sidi Bel Abbes"}}, "85": {"name": "Riad Infinity Sea", "address": {"country": "Morocco", "street": "Derb El Merkez, n. 7"}}, "3": {"name": "Riad Sapphire and Spa", "address": {"country": null, "street": null}}, "7": {"name": "Riad La Terrasse des Oliviers", "address": {"country": null, "street": null}}, "108": {"name": "Riad Nashira & Spa", "address": {"country": null, "street": null}}, "109": {"name": "Riad Noir d'Ivoire", "address": {"country": null, "street": null}}, "102": {"name": "Dar Bounouar", "address": {"country": "Morocco", "street": "8 Derb Lahdiri"}}, "103": {"name": "Dar Zemora", "address": {"country": null, "street": null}}, "100": {"name": "Sahara Palace Marrakech", "address": {"country": "Morocco", "street": "P.O Box 12440"}}, "101": {"name": "Riad Jonan", "address": {"country": null, "street": null}}, "106": {"location": {"lat": 31.630574, "lon": -7.9961264}, "name": "La Maison Arabe", "address": {"country": null, "street": null}}, "107": {"name": "Riad Miski", "address": {"country": null, "street": null}}, "104": {"name": "Riad Slawi", "address": {"country": null, "street": null}}, "105": {"name": "Ryad Dyor", "address": {"country": null, "street": null}}, "39": {"name": "Riyad El Cadi", "address": {"country": null, "street": null}}, "38": {"name": "P'tit Habibi", "address": {"country": "Morocco", "street": "59, bis Zaouia Sidi Bellabes"}}, "33": {"name": "Mosaic Palais Aziza & Spa", "address": {"country": null, "street": null}}, "32": {"location": {"lat": 24.5657482, "lon": 46.5650759}, "name": "Riad Suliman", "address": {"country": "Morocco", "street": "40 - 41, rue El Bahia"}}, "31": {"name": "Riad Hayati", "address": {"country": "Morocco", "street": "27 Derb Bouderba"}}, "30": {"name": "Riad Mirage", "address": {"country": "Morocco", "street": "Kenaria, Derb Sidi Boulafdail No10"}}, "37": {"name": "Riad Bamboo", "address": {"country": "Morocco", "street": "Rue Dabachi Derb Hejra No46"}}, "36": {"name": "Riad Claire Fontaine", "address": {"country": null, "street": null}}, "35": {"location": {"lat": 31.6359871, "lon": -7.9931262}, "name": "Riad O2", "address": {"country": null, "street": null}}, "34": {"name": "Es Saadi Gardens & Resort - Palace", "address": {"country": "Morocco", "street": "Rue Ibrahim El Mazini"}}, "60": {"name": "MonRiad", "address": {"country": null, "street": null}}, "61": {"name": "Riad Maison Belbaraka", "address": {"country": "Morocco", "street": "Riad Laarouss Derb Asafrou Sidi Bouamer No 242"}}, "62": {"location": {"lat": 31.672154, "lon": -7.92881185261959}, "name": "Ksar Char-Bagh", "address": {"country": "Morocco", "street": "Palmeraie de Marrakech"}}, "63": {"name": "Riad Dar Najat", "address": {"country": null, "street": null}}, "64": {"name": "Riad Diana", "address": {"country": null, "street": null}}, "65": {"location": {"lat": 28.5105798, "lon": 83.3251328}, "name": "Dar 73", "address": {"country": "Morocco", "street": "Derb Manchoura, 16"}}, "66": {"name": "Riyad Al Moussika", "address": {"country": null, "street": null}}, "67": {"location": {"lat": 31.6302726, "lon": -7.9841827}, "name": "Riad Karmela", "address": {"country": null, "street": null}}, "68": {"name": "Palais Khum", "address": {"country": null, "street": null}}, "69": {"name": "Riad Dar One", "address": {"country": "Morocco", "street": "19 derb Jemaa el Kabir"}}, "2": {"name": "Dar Zelda", "address": {"country": null, "street": null}}, "6": {"name": "Riad Fleur d'Orient", "address": {"country": null, "street": null}}, "99": {"name": "Riad Elizabeth", "address": {"country": "Morocco", "street": "Derb el Baroud 33"}}, "98": {"location": {"lat": 39.480056, "lon": -84.5518916}, "name": "Dar Seven", "address": {"country": null, "street": null}}, "91": {"location": {"lat": 30.0468506, "lon": 31.1968568}, "name": "Zamzam Riad", "address": {"country": "Morocco", "street": "107, Rue Kaa El Machraa"}}, "90": {"name": "Riad Adika", "address": {"country": null, "street": null}}, "93": {"location": {"lat": 6.6340307, "lon": 124.5956625}, "name": "Rose Sultan", "address": {"country": "Morocco", "street": "Route Ourika km11"}}, "92": {"location": {"lat": 31.62035925, "lon": -7.99174837965281}, "name": "La Villa des Orangers", "address": {"country": null, "street": null}}, "95": {"name": "Sirayane Boutique Hotel & Spa", "address": {"country": null, "street": null}}, "94": {"name": "Dar Rocmarra", "address": {"country": null, "street": null}}, "97": {"location": {"lat": 31.6319123, "lon": -7.9818613}, "name": "Riad Houdou", "address": {"country": null, "street": null}}, "96": {"name": "Riad les Orangers d'Alilia Marrakech", "address": {"country": null, "street": null}}, "11": {"name": "Riad el Noujoum", "address": {"country": null, "street": null}}, "10": {"location": {"lat": 31.63636145, "lon": -7.99283867032661}, "name": "Riad Sadaka", "address": {"country": null, "street": null}}, "13": {"name": "AnaYela", "address": {"country": null, "street": null}}, "12": {"name": "Riad Ralhaya", "address": {"country": null, "street": null}}, "15": {"name": "Villa Al Assala Palmeraie", "address": {"country": null, "street": null}}, "14": {"location": {"lat": 31.6194902, "lon": -8.008551}, "name": "Le Meridien N'Fis", "address": {"country": "Morocco", "street": "Avenue Mohammed VI"}}, "17": {"name": "Riad Monika", "address": {"country": "Morocco", "street": "29 Hart Soura"}}, "16": {"name": "Les Borjs de la Kasbah", "address": {"country": null, "street": null}}, "19": {"name": "Riad Ilayka", "address": {"country": "Morocco", "street": "78 Derb El Hammam"}}, "18": {"location": {"lat": 24.85144145, "lon": 46.7213166194681}, "name": "Riad Nora", "address": {"country": "Morocco", "street": "112, Derb Sidi Moussa"}}, "117": {"name": "Four Seasons Resort Marrakech", "address": {"country": null, "street": null}}, "116": {"name": "El Miria Palais Riad", "address": {"country": null, "street": null}}, "48": {"name": "Riad L'Emir", "address": {"country": null, "street": null}}, "49": {"name": "Riad Dar Karma", "address": {"country": "Morocco", "street": "51, Derb El Mennabha"}}, "46": {"name": "Riad Alma", "address": {"country": "Morocco", "street": "Derb Kbala 77"}}, "86": {"location": {"lat": 24.3840114, "lon": 45.9565466560826}, "name": "Riad Africa", "address": {"country": null, "street": null}}, "44": {"name": "Riad Akka", "address": {"country": null, "street": null}}, "45": {"name": "Maison Arabo Andalouse", "address": {"country": null, "street": null}}, "42": {"name": "Riad Joya", "address": {"country": null, "street": null}}, "43": {"name": "Riad Les Bougainvilliers", "address": {"country": null, "street": null}}, "40": {"name": "Riad Anjar", "address": {"country": null, "street": null}}, "41": {"name": "Dar NanKa", "address": {"country": "Morocco", "street": "Domaine Freha Route De L'ourika Km 13"}}, "1": {"name": "Riad Chennaoui", "address": {"country": "Morocco", "street": "Marrakech"}}, "5": {"location": {"lat": 30.0447701, "lon": 31.2404185}, "name": "Riad El Mansour", "address": {"country": null, "street": null}}, "9": {"name": "Riad Bab Tilila", "address": {"country": null, "street": null}}, "146": {"name": "Eden Andalou Hotel Aquapark & Spa", "address": {"country": "Morocco", "street": "Km 4 route d'Amezmiz"}}, "147": {"name": "SENTIDO Kenzi Menara Palace", "address": {"country": "Morocco", "street": "Av Mohamed VI"}}, "144": {"name": "Marrakech Ryads Parc & Spa by Blue Sea", "address": {"country": "Morocco", "street": "Douer Ouled Benrrahmoun"}}, "145": {"name": "Riad Cocoon", "address": {"country": null, "street": null}}, "142": {"name": "Riad Kheirredine", "address": {"country": null, "street": null}}, "143": {"name": "Riad La Rose D'Orient", "address": {"country": "Morocco", "street": "17-18 derb draoua-sidi soussan-medina"}}, "140": {"name": "Riad Camilia", "address": {"country": "Morocco", "street": "Derb El Ouali 9, Kaat Benahid"}}, "141": {"name": "Dar Charkia", "address": {"country": null, "street": null}}, "148": {"location": {"lat": 24.6982852, "lon": 46.6661859}, "name": "Riad Al Badia", "address": {"country": "Morocco", "street": "135 Derb Ahl Souss"}}, "149": {"name": "Riad le Clos des Arts", "address": {"country": null, "street": null}}, "77": {"location": {"lat": 24.8061639, "lon": 46.8205607}, "name": "Riad Ariha", "address": {"country": null, "street": null}}, "76": {"location": {"lat": 33.9621277, "lon": -6.8637156}, "name": "Riad 11 Zitoune", "address": {"country": null, "street": null}}, "75": {"name": "Riad Dar Massai", "address": {"country": "Morocco", "street": "31 Derb Sbaia Kasbah Medina"}}, "74": {"name": "Riad Massiba", "address": {"country": null, "street": null}}, "73": {"name": "Tigmiza - Suites & Pavillons", "address": {"country": null, "street": null}}, "72": {"name": "Riad de la Belle Epoque", "address": {"country": null, "street": null}}, "71": {"location": {"lat": 33.4387427, "lon": -112.000307}, "name": "Lodge K", "address": {"country": null, "street": null}}, "70": {"name": "Riad 58 Blu", "address": {"country": null, "street": null}}, "79": {"location": {"lat": 54.6299922, "lon": 9.5378832}, "name": "El Fenn", "address": {"country": null, "street": null}}, "78": {"location": {"lat": 31.6181171, "lon": -7.9835543}, "name": "Dar Les Cigognes", "address": {"country": null, "street": null}}, "47": {"location": {"lat": 31.6269176, "lon": -7.9925655}, "name": "Palais Sebban", "address": {"country": null, "street": null}}}, "goa": {"344": {"name": "Sandalwood Hotel & Retreat", "address": {"country": "India", "street": "Vainguinim Beach", "postal_code": "403004", "locality": "Dona Paula"}}, "345": {"name": "Cavala Seaside Resort", "address": {"country": "India", "street": "Saunta Vaddo", "postal_code": "403516", "locality": "Baga"}}, "346": {"name": "The Rivasa Resort", "address": {"country": "India", "street": "Calangute-Baga Junction, Dr. Afonso Road", "postal_code": "403516", "locality": "Calangute"}}, "347": {"name": "Resorte Marinha Dourada", "address": {"country": "India", "street": "Tambudki", "postal_code": "403518", "locality": "Arpora"}}, "340": {"name": "Nagoa Grande Hotel", "address": {"country": "India", "street": "No - 18/1, Nagoa Arpora", "postal_code": "403516", "locality": null}}, "341": {"name": "Renzo's Inn", "address": {"country": "India", "street": "E/139, Adventure Street, Opp Kamath Holiday Home", "postal_code": "403516", "locality": "Calangute"}}, "342": {"address": {"country": "India", "street": "Dando Sinquerim Beach", "postal_code": "403515", "locality": "Candolim"}, "location": {"lat": 15.5052185, "lon": 73.7683432}, "name": "Marquis Beach Resort"}, "343": {"address": {"country": "India", "street": "Shree Nichaldas Arcade", "postal_code": "403516", "locality": "Calangute"}, "location": {"lat": 15.5460146, "lon": 73.763253}, "name": "10 Calangute"}, "348": {"name": "Royal Orchid Beach Resort & Spa, Goa", "address": {"country": "India", "street": "Next to Park Hyatt in the North & Alia Diwa in the South", "postal_code": "403 713", "locality": "Utorda"}}, "349": {"address": {"country": "India", "street": "Swatantra Path", "postal_code": "403802", "locality": "Vasco da Gama"}, "location": {"lat": -27.4526691, "lon": 153.037931700565}, "name": "The HQ"}, "298": {"address": {"country": "India", "street": "Socol Vaddo", "postal_code": "403507", "locality": "Assagao"}, "location": {"lat": 43.26490855, "lon": -5.72809530412553}, "name": "Casa Tres Amigos"}, "299": {"name": "La Sunila Clarks Inn Suites", "address": {"country": "India", "street": "Dr. Constancio Maschrans, River View", "postal_code": "403518", "locality": "Arpora"}}, "296": {"name": "WelcomHeritage Panjim Inn", "address": {"country": "India", "street": "E-212, 31st January Road, Fontainhas", "postal_code": "403001", "locality": "Panaji"}}, "297": {"name": "The Sea Horse Resort", "address": {"country": "India", "street": "Plot no 28, Dr Constancio Mascarenhas River View", "postal_code": "403518", "locality": "Baga"}}, "294": {"address": {"country": "India", "street": "1795, Calwaddo", "postal_code": "403716", "locality": "Benaulim"}, "location": {"lat": 15.2457671, "lon": 73.9297444}, "name": "Joecons Beach Resort"}, "295": {"name": "Angels Resort", "address": {"country": "India", "street": "Chogm Road", "postal_code": "403521", "locality": null}}, "292": {"name": "Nazri Resort Hotel", "address": {"country": "India", "street": "Saunta Vaddo", "postal_code": "GA 403516", "locality": "Baga"}}, "293": {"address": {"country": "India", "street": "Umta Vaddo", "postal_code": "403516", "locality": "Calangute"}, "location": {"lat": -18.8947172, "lon": 48.1419176}, "name": "Mira Hotel"}, "290": {"name": "The Crown Goa", "address": {"country": "India", "street": "Bairo Alto Dos Pilotos", "postal_code": "403001", "locality": "Panaji"}}, "291": {"address": {"country": "India", "street": "Senhor Francisco Road, near St. Anthony's Chapel", "postal_code": "403516", "locality": "Calangute"}, "location": {"lat": 15.5352972, "lon": 73.7616618}, "name": "Casa Severina"}, "199": {"name": "Verca le Palms Beach Resort", "address": {"country": "India", "street": "Teen Murti", "postal_code": "403721", "locality": null}}, "198": {"address": {"country": "India", "street": "Margao-Panaji Highway", "postal_code": "403601", "locality": "Margao"}, "location": {"lat": -30.2865416, "lon": 153.1388158}, "name": "Sapphire Comfort Hotel"}, "195": {"address": {"country": "India", "street": "MG Road", "postal_code": "403001", "locality": "Panaji"}, "location": {"lat": 45.4663201, "lon": 9.1587332}, "name": "Hotel La Capitol"}, "194": {"name": "Lloyd's Tourist Rooms", "address": {"country": "India", "street": "1554 /A, Vasvaddo Bandar, Benaulim", "postal_code": null, "locality": null}}, "197": {"address": {"country": "India", "street": "Near Old Patto Bridge", "postal_code": "403001", "locality": "Panaji"}, "location": {"lat": 34.0777908, "lon": -117.2414299}, "name": "Marigold"}, "196": {"address": {"country": "India", "street": "Rajbag Beach Tarir", "postal_code": "403 702", "locality": null}, "location": {"lat": 12.0842782, "lon": -68.897607}, "name": "Royal Resort"}, "191": {"name": "Hotel Aroma Executive", "address": {"country": "India", "street": "Rua Cunha Rivara Road", "postal_code": "403001", "locality": "Panaji"}}, "190": {"name": "Angelina Beach Resort", "address": {"country": "India", "street": "Near Titos Night Club, Saunta Vaddo", "postal_code": "403516", "locality": "Calangute"}}, "193": {"name": "Yab Yum Resort", "address": {"country": "India", "street": "Ashvem Beach", "postal_code": "403 527", "locality": "Mandrem"}}, "192": {"address": {"country": "India", "street": "Cobra Vaddo", "postal_code": "403516", "locality": "Calangute"}, "location": {"lat": 41.9473826, "lon": -87.6442628}, "name": "Majestic Inn"}, "270": {"name": "Casa Vagator", "address": {"country": "India", "street": "House No. 594/4, Vozran", "postal_code": "403509", "locality": "Vagator"}}, "271": {"address": {"country": "India", "street": "No. 962(1) Behind German Bakery", "postal_code": "403509", "locality": "Anjuna"}, "location": {"lat": 37.5183595, "lon": 126.8705824}, "name": "The Banyan Soul"}, "272": {"address": {"country": "India", "street": "Patnem-Palolem Beach Road", "postal_code": "403702", "locality": "Palolem"}, "location": {"lat": 14.9976142, "lon": 74.0395844}, "name": "The Tubki Resort"}, "273": {"address": {"country": "India", "street": "Majorda Village, Salcette", "postal_code": "403713", "locality": "Majorda"}, "location": {"lat": 15.3119651, "lon": 73.9038853}, "name": "Majorda Beach Resort"}, "274": {"address": {"country": "India", "street": "Dando Candolim", "postal_code": "403515", "locality": "Candolim"}, "location": {"lat": 15.5029182, "lon": 73.7710815}, "name": "Lui Beach Resort"}, "275": {"name": "Afonso Guest House", "address": {"country": "India", "street": "Near Saint Sebastian Chapel", "postal_code": "403001", "locality": "Panaji"}}, "276": {"name": "Hotel Laguna Anjuna", "address": {"country": "India", "street": "Sorantto Vado", "postal_code": "403509", "locality": "Anjuna"}}, "277": {"name": "360 Degree Beach Retreat", "address": {"country": "India", "street": "Candolim Beach", "postal_code": null, "locality": "Candolim"}}, "278": {"address": {"country": "India", "street": "1286, Kumar Vaddo", "postal_code": "403509", "locality": "Anjuna"}, "location": {"lat": 15.588882, "lon": 73.7646537}, "name": "The Tamarind Hotel"}, "279": {"name": "Goa - Villagio, A Sterling Holidays Resort", "address": {"country": "India", "street": "Thondwaddo", "postal_code": "403713", "locality": "Betalbatim"}}, "108": {"address": {"country": "India", "street": "Umtavaddo", "postal_code": "403516", "locality": "Calangute"}, "location": {"lat": -22.912701, "lon": -43.1908308}, "name": "O Camarao Hotel"}, "109": {"address": {"country": "India", "street": "Opp. Damodar Temple", "postal_code": "403802", "locality": "Vasco da Gama"}, "location": {"lat": 9.921546, "lon": 78.1123813}, "name": "Hotel Supreme"}, "102": {"name": "Palm Groove Guest House", "address": {"country": "India", "street": "Main Vagator Beach Road, Deulvado", "postal_code": "403509", "locality": "Vagator"}}, "103": {"address": {"country": "India", "street": "Near St Anthony's Church", "postal_code": "403509", "locality": "Anjuna"}, "location": {"lat": 24.87232665, "lon": 67.0655185478516}, "name": "Hill Top Hotel"}, "100": {"address": {"country": "India", "street": "Ghanekar Building Jose Falcao Road", "postal_code": "403001", "locality": "Panaji"}, "location": {"lat": 41.0874246, "lon": 16.80248}, "name": "Casa Paradiso"}, "101": {"address": {"country": "India", "street": "Sernabatim Beach", "postal_code": "403708", "locality": "Sernabatim"}, "location": {"lat": 15.2675912, "lon": 73.9167069}, "name": "Marvista Beach House"}, "106": {"address": {"country": "India", "street": "Umta Vaddo, Beach Street", "postal_code": "403516", "locality": "Calangute"}, "location": {"lat": 40.5908114, "lon": 23.7858023}, "name": "Hotel Germany"}, "107": {"address": {"country": "India", "street": "Tamdi Mati", "postal_code": "403001", "locality": "Panaji"}, "location": {"lat": 65.034288, "lon": 35.6975299}, "name": "Branco Guest House"}, "104": {"name": "Bollywood Sea Queen Beach Resort", "address": {"country": "India", "street": "Colva Beach", "postal_code": "403708", "locality": null}}, "105": {"name": "Hafh Resort", "address": {"country": "India", "street": "Mainat Bhatti", "postal_code": "403518", "locality": "Arpora"}}, "39": {"name": "Aguada Hermitage", "address": {"country": "India", "street": "Sinquerim Beach", "postal_code": "403 519", "locality": "Sinquerim"}}, "38": {"name": "Gaffino's Beach Resort", "address": {"country": "India", "street": "Mobor Beach", "postal_code": "403731", "locality": "Cavelossim"}}, "33": {"address": {"country": "India", "street": "Tambudki", "postal_code": "403518", "locality": "Arpora"}, "location": {"lat": 28.4906717, "lon": 76.9873507103009}, "name": "Rio Residency"}, "32": {"name": "Manfredi's Resort", "address": {"country": "India", "street": "Pololem Beach", "postal_code": null, "locality": "Palolem"}}, "31": {"name": "Saikunj Holiday Homes", "address": {"country": "India", "street": "H no 687C, Pintos Wado Highland Beach Resort Road", "postal_code": "403515", "locality": "Candolim"}}, "30": {"address": {"country": "India", "street": "Palolem Beach Road", "postal_code": "403702", "locality": "Palolem"}, "location": {"lat": 27.2573632, "lon": 33.8276511071543}, "name": "Cleopatra Resort"}, "37": {"address": {"country": "India", "street": null, "postal_code": null, "locality": "Benaulim"}, "location": {"lat": 48.2186629, "lon": 16.3312759}, "name": "Simon's Cottage"}, "36": {"address": {"country": "India", "street": "Rajendra Prasad Avenue", "postal_code": "403802", "locality": "Vasco da Gama"}, "location": {"lat": -27.3556329, "lon": 152.9764658}, "name": "The Karma Plaza Hotel"}, "35": {"name": "Crystal Beach Resort By Cambay", "address": {"country": "India", "street": "Holiday street, Kerkar art gallery lane, Near little italy rest Gauravado", "postal_code": null, "locality": "Calangute"}}, "34": {"name": "Mayem Residency", "address": {"country": "India", "street": "Mayem Lake View", "postal_code": null, "locality": "Ponda"}}, "339": {"name": "Acacia Palms Resort", "address": {"country": "India", "street": "Facing the Beach, 4th ward, Colva, Salcete, Goa", "postal_code": "403708", "locality": "Colva"}}, "338": {"name": "Spazio Leisure Resort", "address": {"country": "India", "street": "Near Starco Junction", "postal_code": "403509", "locality": "Anjuna"}}, "335": {"name": "Fortune Select Regina", "address": {"country": "India", "street": "Off Fort Aguada Road, Candolim", "postal_code": "403515", "locality": "Candolim"}}, "334": {"name": "juSTa Panjim, Goa", "address": {"country": "India", "street": "Off Marine Drive", "postal_code": "403002 ", "locality": "Panaji"}}, "337": {"name": "Silver Sands Sunshine - Angaara", "address": {"country": "India", "street": "Murod Vaddo, Candolim Goa", "postal_code": "403515", "locality": "Candolim"}}, "336": {"name": "Bogmallo Beach Resort", "address": {"country": "India", "street": "P. O. Box Bogmalo", "postal_code": "403806", "locality": "Bogmalo"}}, "331": {"name": "Sea Mist Resort", "address": {"country": "India", "street": "Vaddy", "postal_code": "403515", "locality": "Candolim"}}, "330": {"address": {"country": "India", "street": "Junas Wado,Mandrem", "postal_code": "403527", "locality": "Mandrem"}, "location": {"lat": 15.6711262, "lon": 73.7095314}, "name": "Riva Beach Resort"}, "333": {"name": "The Acacia Hotel & Spa Goa", "address": {"country": "India", "street": "H. No. 586/A, Sequeira Vaddo", "postal_code": "403515", "locality": "Candolim"}}, "332": {"address": {"country": "India", "street": "Ozran Beach Road Anjuna Anjuna", "postal_code": "403509", "locality": "Vagator"}, "location": {"lat": 15.5967605, "lon": 73.7388928}, "name": "Leoney Resort"}, "0": {"address": {"country": "India", "street": "Khobra Vaddo", "postal_code": "403516", "locality": "Baga"}, "location": {"lat": 39.5411768, "lon": 2.593458}, "name": "Hotel Bonanza"}, "6": {"name": "Carina Beach Resort", "address": {"country": "India", "street": "Vasvaddo", "postal_code": "403716", "locality": "Benaulim"}}, "99": {"address": {"country": "India", "street": "Opp Azad Maidan", "postal_code": "403 001", "locality": "Panaji"}, "location": {"lat": 42.3983396, "lon": 20.6523398297498}, "name": "Hotel Park Plaza"}, "98": {"address": {"country": "India", "street": "Calangute Baga Road, Khobrwaddo, Bardez Goa", "postal_code": "403516", "locality": "Calangute"}, "location": {"lat": 42.0948526, "lon": 2.0997809}, "name": "Casa De Baga"}, "91": {"name": "Alcon Holiday Village", "address": {"country": "India", "street": "Vaddy", "postal_code": null, "locality": "Candolim"}}, "90": {"address": {"country": "India", "street": null, "postal_code": "403001", "locality": "Panaji"}, "location": {"lat": 15.4144558, "lon": 73.9871632}, "name": "Panaji Residency"}, "93": {"address": {"country": "India", "street": "D.B Marg", "postal_code": "403001", "locality": "Panaji"}, "location": {"lat": 15.50011, "lon": 73.8293449}, "name": "Hotel Mandovi"}, "92": {"address": {"country": "India", "street": "Near St. Alex Church, Naika Vaddo", "postal_code": "403 516", "locality": null}, "location": {"lat": 38.8757348, "lon": -122.7286005}, "name": "Maria Rosa Resort"}, "95": {"name": "Titos My Hotel", "address": {"country": "India", "street": "Fatta Waddo, Nerul", "postal_code": null, "locality": "Calangute"}}, "94": {"address": {"country": "India", "street": "Survey No: 170/88, Arradi, Guirin, P.O Master Near Mt.Guirin High School", "postal_code": "403507", "locality": null}, "location": {"lat": 15.2446531, "lon": 73.9251932}, "name": "Grand Goa Exotica"}, "97": {"name": "Alagoa Resort", "address": {"country": "India", "street": "No 82-B Ranvaddo Betalbatim", "postal_code": "403713", "locality": "Betalbatim"}}, "96": {"name": "Royal Palace Beach Resort", "address": {"country": "India", "street": "Holiday Street, Gaurawaddo", "postal_code": "403516", "locality": "Calangute"}}, "238": {"address": {"country": "India", "street": "Vaswaddo", "postal_code": "403716", "locality": "Benaulim"}, "location": {"lat": 14.913786, "lon": 120.7545375}, "name": "La Grace Resort"}, "239": {"name": "A's Holiday Beach Resort", "address": {"country": "India", "street": "Sunset Beach", "postal_code": "403001", "locality": "Betalbatim"}}, "234": {"name": "Sea Shore Beach Resort", "address": {"country": "India", "street": "Umtavaddo", "postal_code": "403516", "locality": "Calangute"}}, "235": {"address": {"country": "India", "street": "Old Goa,", "postal_code": "403001", "locality": "Ponda"}, "location": {"lat": 15.5453792, "lon": 73.7564642}, "name": "Old Goa Residency"}, "236": {"address": {"country": "India", "street": "Candolim-Calangute Road", "postal_code": "403515", "locality": "Candolim"}, "location": {"lat": 15.5230458, "lon": 73.7670473}, "name": "Godwin Hotel"}, "237": {"name": "Casa Colvale", "address": {"country": "India", "street": "Taliwado, Chiklim", "postal_code": "403513", "locality": null}}, "230": {"name": "Dreamcatcher Resort", "address": {"country": "India", "street": "Far North Palolem Beach", "postal_code": "403702", "locality": "Palolem"}}, "231": {"address": {"country": "India", "street": "Fort Aguada Road,", "postal_code": "403515", "locality": "Candolim"}, "location": {"lat": 12.1675974, "lon": -68.2869999733785}, "name": "Sunset Beach Hotel"}, "232": {"address": {"country": "India", "street": "200 Rua Leopold Flores (Road)", "postal_code": "403802", "locality": "Vasco da Gama"}, "location": {"lat": 60.1678773, "lon": 24.9285929231472}, "name": "Maharaja Hotels"}, "233": {"address": {"country": "India", "street": "New Wada", "postal_code": "403512", "locality": "Morjim"}, "location": {"lat": 52.2568996, "lon": 5.4672992}, "name": "Sur La Mer"}, "1": {"address": {"country": "India", "street": "4th Ward,Colva Beach", "postal_code": "403708", "locality": null}, "location": {"lat": 23.2359005, "lon": -106.439973}, "name": "Amigo Plaza"}, "146": {"address": {"country": "India", "street": "Municipal Gardens", "postal_code": "403001", "locality": "Panaji"}, "location": {"lat": 15.5456284, "lon": 73.7613356}, "name": "Hotel Manvin's"}, "147": {"address": {"country": "India", "street": "M. G. Road, Lane II, Behind Niyaaz Restaurant, Next to Lokmat Newspaper", "postal_code": "403001", "locality": "Panaji"}, "location": {"lat": 51.51073245, "lon": -0.0765473045324569}, "name": "Hotel Blessings"}, "144": {"address": {"country": "India", "street": "Near Hanuman Temple", "postal_code": "403507", "locality": "Mapusa"}, "location": {"lat": 15.5910323, "lon": 73.810367}, "name": "Hotel Satyaheera"}, "145": {"address": {"country": "India", "street": "Tivai Vaddo", "postal_code": "406516", "locality": "Calangute"}, "location": {"lat": 39.324188, "lon": -75.3213999}, "name": "Sea Breeze Beach Hotel"}, "142": {"address": {"country": "India", "street": "Agonda Beach Road", "postal_code": "403702", "locality": "Agonda"}, "location": {"lat": 15.0370557, "lon": 73.9895907}, "name": "Dunhill Beach Resort"}, "143": {"name": "Amarya Shamiyana", "address": {"country": "India", "street": "Asvem Beach", "postal_code": "403527", "locality": "Mandrem"}}, "140": {"name": "Willows Elite Resort", "address": {"country": "India", "street": "Bairo alto, Anjuna", "postal_code": "403507", "locality": null}}, "141": {"name": "Preetham Cottages", "address": {"country": "India", "street": "Pololem Beach", "postal_code": "403516", "locality": "Palolem"}}, "148": {"name": "Hawaii The Sea-Side Village Retreat", "address": {"country": "India", "street": "Hawaii Beach, Behind Police Outpost/Cid Office", "postal_code": "403004", "locality": "Dona Paula"}}, "149": {"address": {"country": "India", "street": "Zor Vaddo", "postal_code": "403509", "locality": "Anjuna"}, "location": {"lat": 43.6652656, "lon": -79.4741467}, "name": "Lotus Inn"}, "133": {"name": "Shangrila Beach Hotel, Goa", "address": {"country": "India", "street": "Majorda Beach", "postal_code": "403713", "locality": "Majorda"}}, "132": {"address": {"country": "India", "street": "Behind Titos Disco", "postal_code": "403516", "locality": "Baga"}, "location": {"lat": 51.4002361, "lon": 0.795847855575487}, "name": "Sea View Cottages"}, "131": {"name": "Delta Residency", "address": {"country": "India", "street": "151/20, Gauro Vaddo, Near St. Anthony_s Chapel,", "postal_code": "403516", "locality": "Calangute"}}, "130": {"name": "Abalone Resort", "address": {"country": "India", "street": "Gorbhat", "postal_code": "403 518", "locality": "Arpora"}}, "137": {"address": {"country": "India", "street": "3rd Ward Beach Road", "postal_code": "403708", "locality": "Colva"}, "location": {"lat": 10.7275001, "lon": 106.7066161}, "name": "Lucky Star Hotel"}, "136": {"address": {"country": "India", "street": "Naika Vaddo Calangute", "postal_code": "403516", "locality": "Calangute"}, "location": {"lat": 15.5400019, "lon": 73.7642574}, "name": "Nizmar Resort"}, "135": {"address": {"country": "India", "street": "Pedda", "postal_code": "403721", "locality": null}, "location": {"lat": 15.238719, "lon": 73.9297140774651}, "name": "The RETREAT by Zuri"}, "134": {"name": "Dropadi Inn", "address": {"country": "India", "street": "Main Street", "postal_code": "403702", "locality": "Palolem"}}, "139": {"name": "Affortel Magnum Resorts", "address": {"country": "India", "street": "Near Health Centre", "postal_code": "403515", "locality": "Candolim"}}, "138": {"name": "Silver Sands Beach Resort", "address": {"country": "India", "street": "Colva Beach", "postal_code": "403 708", "locality": "Colva"}}, "24": {"name": "FabHotel Baga II", "address": {"country": "India", "street": "Primo Bom Rd", "postal_code": "403516", "locality": "Baga"}}, "25": {"address": {"country": "India", "street": "Porvorim", "postal_code": "403206", "locality": "Bambolim"}, "location": {"lat": 47.9607582, "lon": 8.0092808}, "name": "Champions Villa"}, "26": {"name": "Bay15 \u2013 A juSTa Resort, Goa", "address": {"country": "India", "street": "Oxdel Beach", "postal_code": "403004", "locality": "Dona Paula"}}, "27": {"name": "FabHotel Baga I", "address": {"country": "India", "street": "Baga Beach Rd", "postal_code": "403516", "locality": "Saunta Vaddo"}}, "20": {"address": {"country": "India", "street": "Mobor Beach", "postal_code": "403713", "locality": null}, "location": {"lat": 15.1770682, "lon": 73.9476626}, "name": "Mobor Beach Resort"}, "21": {"address": {"country": "India", "street": "Plot No 104, /18", "postal_code": "403521", "locality": "Porvorim"}, "location": {"lat": 15.5165537, "lon": 73.8328608}, "name": "Neo Majestic"}, "22": {"address": {"country": "India", "street": "Opp Maruti Temple", "postal_code": "403401", "locality": "Ponda"}, "location": {"lat": 51.4665422, "lon": -0.291100303771443}, "name": "Hotel Sun Inn"}, "23": {"name": "Gods Gift Holiday Home", "address": {"country": "India", "street": "Girkarwaddo", "postal_code": "403507", "locality": "Arambol"}}, "28": {"name": "Ramsons Resort", "address": {"country": "India", "street": "Agonda Beach", "postal_code": "403702", "locality": null}}, "29": {"name": "Maria Paulo Guest House- Agonda", "address": {"country": "India", "street": "near Church, Agonda Beach", "postal_code": "403702", "locality": "Agonda"}}, "379": {"name": "DoubleTree by Hilton Hotel Goa - Arpora - Baga", "address": {"country": "India", "street": "Ximer", "postal_code": "403518", "locality": "Arpora"}}, "378": {"name": "Heritage Village Club Goa", "address": {"country": "India", "street": "Arossim Beach", "postal_code": "403712", "locality": "Cansaulim"}}, "371": {"address": {"country": "India", "street": "Post Office Road", "postal_code": "403516", "locality": "Calangute"}, "location": {"lat": 31.6214506, "lon": 74.8791946}, "name": "Neelams The Grand"}, "370": {"address": {"country": "India", "street": "Varca Village Fatrade", "postal_code": "403721", "locality": "Varca"}, "location": {"lat": 15.2099428, "lon": 73.9340228025731}, "name": "Ramada Caravela Beach Resort"}, "373": {"address": {"country": "India", "street": "370 / 14 Porba Vaddo", "postal_code": "403516", "locality": "Calangute"}, "location": {"lat": 13.6998344, "lon": 123.4899439}, "name": "North 16 Goa"}, "372": {"name": "Keys Resort Ronil", "address": {"country": "India", "street": "Near Tito's Night Club", "postal_code": "403516", "locality": "Baga"}}, "375": {"name": "Casa De Goa Boutique Resort", "address": {"country": "India", "street": "Tivai Vaddo", "postal_code": "403516", "locality": "Calangute"}}, "374": {"name": "Vivanta by Taj - Holiday Village, Goa", "address": {"country": "India", "street": "Dando, Candolim", "postal_code": "403515", "locality": "Sinquerim"}}, "377": {"name": "The Zuri White Sands Goa Resort & Casino", "address": {"country": "India", "street": "Pedda", "postal_code": "403721", "locality": "Varca"}}, "376": {"name": "Citrus Goa", "address": {"country": "India", "street": "Umtavaddo", "postal_code": "412107", "locality": "Calangute"}}, "393": {"address": {"country": "India", "street": "Calwaddo", "postal_code": "403716", "locality": "Benaulim"}, "location": {"lat": 15.2446531, "lon": 73.9251932}, "name": "Taj Exotica Goa"}, "392": {"name": "Vivanta by Taj - Fort Aguada, Goa", "address": {"country": "India", "street": "Dando, Candolim", "postal_code": "403515", "locality": "Sinquerim"}}, "88": {"address": {"country": "India", "street": "Nr Taste of China, Opp Village Panchayat", "postal_code": "403515", "locality": null}, "location": {"lat": 26.55134925, "lon": -82.1970752106518}, "name": "Seabreeze Resort"}, "89": {"name": "Alor Holiday Resort", "address": {"country": "India", "street": "Near Poriat Football,Calngute,Naika Vaddo", "postal_code": "403516", "locality": "Calangute"}}, "82": {"name": "FabHotel Candolim Beach", "address": {"country": "India", "street": null, "postal_code": "403515", "locality": "Candolim"}}, "181": {"name": "Casa Britona", "address": {"country": "India", "street": "217 Near Charmanos Badem", "postal_code": "403101", "locality": null}}, "80": {"name": "Hotel Manoshanti", "address": {"country": "India", "street": "Behind EDC House", "postal_code": "403001", "locality": "Panaji"}}, "81": {"name": "Goyam Beach Resort", "address": {"country": "India", "street": "Patnem Beach", "postal_code": null, "locality": null}}, "86": {"name": "Art Resort Goa", "address": {"country": "India", "street": "Palolem Beach", "postal_code": "403702", "locality": "Palolem"}}, "87": {"name": "Mapple Viva Goa", "address": {"country": "India", "street": "Dr. Jack Sequeira Junction", "postal_code": "403516", "locality": "Calangute"}}, "84": {"address": {"country": "India", "street": "Dr Atmaram Borkar Road", "postal_code": "403001", "locality": "Panaji"}, "location": {"lat": 23.8391411, "lon": 91.2852588}, "name": "Hotel Rajdhani"}, "85": {"name": "Pam's Pirache Resort", "address": {"country": "India", "street": "Turtle Beach, Temb Waddo", "postal_code": "403512", "locality": "Pernem"}}, "7": {"address": {"country": "India", "street": "Dr. Jack Sequira Junction", "postal_code": "403516", "locality": "Calangute"}, "location": {"lat": 15.5337436, "lon": 73.7583311}, "name": "Hotel Calangute Towers"}, "245": {"name": "Nanutel Margao Hotel", "address": {"country": "India", "street": "Padre Miranda Road", "postal_code": "403601", "locality": "Margao"}}, "244": {"address": {"country": "India", "street": "Ranwaddo Betalbatim", "postal_code": "403713", "locality": null}, "location": {"lat": 15.3032014, "lon": 73.9140523}, "name": "Martin's Comfort"}, "247": {"address": {"country": "India", "street": "7/129 B Saunta Vaddo", "postal_code": "403516", "locality": "Calangute"}, "location": {"lat": 15.5610288, "lon": 73.7529166}, "name": "La Calypso Goa"}, "246": {"name": "William's Beach Retreat", "address": {"country": "India", "street": "4th Ward", "postal_code": "403708", "locality": "Colva"}}, "241": {"name": "Sandray Luxury Resort, Goa", "address": {"country": "India", "street": "Benaulim to Colva Road", "postal_code": "403708", "locality": "Benaulim"}}, "240": {"name": "Chances Resort and Casino", "address": {"country": "India", "street": "184-189 Machado's Cove", "postal_code": "400053", "locality": "Dona Paula"}}, "243": {"address": {"country": "India", "street": "Calvaddo", "postal_code": "403716", "locality": "Benaulim"}, "location": {"lat": 15.2445691, "lon": 73.928612}, "name": "Royal Benaulim"}, "242": {"name": "Kingstork Beach Resort", "address": {"country": "India", "street": "Holiday Street, Gaura Vaddo", "postal_code": "403516", "locality": "Calangute"}}, "249": {"address": {"country": "India", "street": "Ashvem Beach", "postal_code": "403 527", "locality": "Mandrem"}, "location": {"lat": -33.3233333, "lon": 151.3094444}, "name": "Little Palm Grove"}, "248": {"name": "The Fern Gardenia Resort, Canacona", "address": {"country": "India", "street": "Palolem Agonda Road Devabag", "postal_code": "403728", "locality": null}}, "179": {"name": "All Season's Goa", "address": {"country": "India", "street": "Prazers Street opp Prazers Resort", "postal_code": "403515", "locality": "Candolim"}}, "178": {"address": {"country": "India", "street": "Tivai Vaddo", "postal_code": "403516", "locality": "Calangute"}, "location": {"lat": 15.5397723, "lon": 73.7592017}, "name": "Paradise Village Beach Resort"}, "177": {"address": {"country": "India", "street": "Palolem Beach", "postal_code": "403702", "locality": null}, "location": {"lat": 15.0047006, "lon": 74.029005}, "name": "Bhakti Kutir"}, "176": {"address": {"country": "India", "street": "Plot Number 12 & 13, La Oceana Colony", "postal_code": "403004", "locality": "Dona Paula"}, "location": {"lat": 46.1250985, "lon": 3.4244356}, "name": "L'Hotel Eden"}, "175": {"name": "Goa Highridge", "address": {"country": "India", "street": "171, Nagali Hills,", "postal_code": "403004", "locality": "Dona Paula"}}, "174": {"address": {"country": "India", "street": "Porba Vaddo", "postal_code": "403516", "locality": "Calangute"}, "location": {"lat": 49.5171198, "lon": -105.2248821}, "name": "Horizon"}, "173": {"address": {"country": "India", "street": "Road Opp Bank of India", "postal_code": "403515", "locality": "Nerul"}, "location": {"lat": 15.0062052, "lon": 74.0271056}, "name": "Sol de Goa"}, "172": {"name": "Safira River Front Resort", "address": {"country": "India", "street": "Morjim Beach Road", "postal_code": "403507", "locality": "Morjim"}}, "171": {"address": {"country": "India", "street": "Near Dharwardkar Nursing Home", "postal_code": "403516", "locality": "Saligao"}, "location": {"lat": 14.2855863, "lon": 120.992001011959}, "name": "Resort Village Royale"}, "170": {"address": {"country": "India", "street": "Beach Road Via Maria Hall, Vaswaddo,", "postal_code": "403716", "locality": "Benaulim"}, "location": {"lat": 15.2551243, "lon": 73.9231961}, "name": "Lotus Beach Resort"}, "182": {"name": "Oshins Guesthouse", "address": {"country": "India", "street": "Salcete", "postal_code": "403716", "locality": "Benaulim"}}, "183": {"address": {"country": "India", "street": "1160/3 Mazal Vaddo", "postal_code": "403509", "locality": "Anjuna"}, "location": {"lat": -23.00847705, "lon": -44.3541571509305}, "name": "Vila Nova Resort"}, "180": {"name": "Famafa Beach Resort Hotel", "address": {"country": "India", "street": "Beach Road Khalcha waddo", "postal_code": "403512", "locality": "Arambol"}}, "2": {"address": {"country": "India", "street": null, "postal_code": "403518", "locality": "Arpora"}, "location": {"lat": 53.08258735, "lon": -2.40228546503876}, "name": "Apple House"}, "186": {"name": "The Ronil Royale", "address": {"country": "India", "street": "Saunta Vaddo", "postal_code": "403516", "locality": "Calangute"}}, "187": {"address": {"country": "India", "street": "Tamborim", "postal_code": "403 731", "locality": "Cavelossim"}, "location": {"lat": 15.1975462, "lon": 73.9413809}, "name": "Dona Sa Maria"}, "184": {"address": {"country": "India", "street": "Dr Atmaram Borkar Road", "postal_code": "403001", "locality": "Panaji"}, "location": {"lat": -21.1062096, "lon": 165.3109146}, "name": "Hotel Nova Goa"}, "185": {"name": "Meraden La Oasis", "address": {"country": "India", "street": "near Football Ground, Flea Market Road", "postal_code": "403509", "locality": "Anjuna"}}, "188": {"name": "Surya Sangolda", "address": {"country": "India", "street": "Belavista Vaddo", "postal_code": "403511", "locality": "Sangolda"}}, "189": {"name": "Sun Kissed Resort", "address": {"country": "India", "street": "Naika Vaddo", "postal_code": "403 516", "locality": "Calangute"}}, "11": {"address": {"country": "India", "street": "Next To State Bank Of India", "postal_code": "403004", "locality": "Dona Paula"}, "location": {"lat": -1.797999, "lon": -53.477903}, "name": "Prainha"}, "10": {"address": {"country": "India", "street": "Guara Vaddo", "postal_code": "403516", "locality": "Calangute"}, "location": {"lat": 35.470476, "lon": -82.9163279}, "name": "Arabian Retreat"}, "13": {"name": "Divine Guest House", "address": {"country": "India", "street": "River-Cross", "postal_code": "403516", "locality": "Calangute"}}, "12": {"address": {"country": "India", "street": "484 Compal Colony", "postal_code": "403001", "locality": "Panaji"}, "location": {"lat": 31.758442, "lon": -106.4897093}, "name": "El Paso Hotel"}, "15": {"name": "Julma Resort", "address": {"country": "India", "street": "Saunta Wada,Baga", "postal_code": "403516", "locality": "Calangute"}}, "14": {"name": "Stonewater Eco Resort", "address": {"country": "India", "street": "Karma Woodhouse Estae", "postal_code": "403516", "locality": "Bogmalo"}}, "17": {"address": {"country": "India", "street": "Junas Waddo, After Mandrem Market", "postal_code": "403527", "locality": "Mandrem"}, "location": {"lat": 15.6711262, "lon": 73.7095314}, "name": "Mandrem Beach Resort"}, "16": {"name": "Nakita Resort", "address": {"country": "India", "street": "Umta Vaddo", "postal_code": "403516", "locality": "Calangute"}}, "19": {"address": {"country": "India", "street": "Opp: Dona Syliva Resort", "postal_code": "403731", "locality": "Cavelossim"}, "location": {"lat": 30.62665, "lon": -87.0532369}, "name": "Mike's Place"}, "18": {"name": "Sterling Goa India Days Inn", "address": {"country": "India", "street": "Vagator Beach", "postal_code": "403511", "locality": "Mapusa"}}, "62": {"address": {"country": "India", "street": "Gaurovaddo", "postal_code": "403516", "locality": "Calangute"}, "location": {"lat": 22.19618385, "lon": 113.5472095}, "name": "Santo Antonio Hotel"}, "322": {"name": "Jasminn by Mango Hotels", "address": {"country": "India", "street": "No 79 Nagvaddo", "postal_code": "403713", "locality": "Betalbatim"}}, "323": {"address": {"country": "India", "street": "Little Baga Arpora", "postal_code": "403518", "locality": "Baga"}, "location": {"lat": 38.7609975, "lon": -9.39594633426498}, "name": "Resort Lagoa Azul"}, "320": {"name": "Ondas do Mar Beach Resort", "address": {"country": "India", "street": "Holiday Street, Gauravaddo", "postal_code": "403516", "locality": "Calangute"}}, "321": {"address": {"country": "India", "street": "Bagawada", "postal_code": "403516", "locality": "Baga"}, "location": {"lat": 37.4506705, "lon": 25.3297131}, "name": "Mykonos Blu"}, "326": {"address": {"country": "India", "street": null, "postal_code": "403516", "locality": "Calangute"}, "location": {"lat": 15.5453792, "lon": 73.7564642}, "name": "Calangute Residency"}, "327": {"name": "Silver Sands Holiday Village", "address": {"country": "India", "street": "Murodd Waddo", "postal_code": "403515", "locality": "Candolim"}}, "324": {"name": "Ginger Goa", "address": {"country": "India", "street": "Plot No. 37, 38", "postal_code": null, "locality": "Panaji"}}, "325": {"address": {"country": "India", "street": "Holiday Street, Lane opposite Calangute Mall", "postal_code": "403516", "locality": "Calangute"}, "location": {"lat": 15.5337235, "lon": 73.7597747}, "name": "The Park Calangute Goa"}, "328": {"address": {"country": "India", "street": "S.No. 114/1 Dando", "postal_code": "403515", "locality": "Candolim"}, "location": {"lat": -34.909244, "lon": 138.5968076}, "name": "The O Hotel"}, "329": {"address": {"country": "India", "street": "Tambudki", "postal_code": "403518", "locality": "Arpora"}, "location": {"lat": 15.5643863, "lon": 73.7593353}, "name": "Resort Rio"}, "201": {"address": {"country": "India", "street": "Colva", "postal_code": "403708", "locality": "Colva"}, "location": {"lat": 15.276867, "lon": 73.9164472}, "name": "Colva Beach Resort"}, "200": {"name": "Planet Hollywood Beach Resort", "address": {"country": "India", "street": "A-8, Asconwaddo", "postal_code": "403713", "locality": "Utorda"}}, "203": {"address": {"country": "India", "street": "Adsulim, Benaulim", "postal_code": null, "locality": null}, "location": {"lat": 15.2620816, "lon": 73.930253}, "name": "Hotel Failaka"}, "202": {"address": {"country": "India", "street": "Off-Chogm Road,", "postal_code": "403705", "locality": "Porvorim"}, "location": {"lat": 28.2070524, "lon": 83.9627991}, "name": "Hotel Gautam"}, "205": {"address": {"country": "India", "street": "Mazal Vaddo", "postal_code": "403509", "locality": "Anjuna"}, "location": {"lat": 41.2198568, "lon": -8.55457352535391}, "name": "Palacete Rodrigues"}, "204": {"name": "Nilaya Hermitage", "address": {"country": "India", "street": "Arpora Bhati", "postal_code": "403518", "locality": "Arpora"}}, "207": {"address": {"country": "India", "street": "Near Durga Petrol Pump", "postal_code": "403602", "locality": null}, "location": {"lat": -6.8891571, "lon": 107.5821297}, "name": "Hotel Surya Palace"}, "206": {"name": "Belle Wista: Enviro Green Resort", "address": {"country": "India", "street": "162, Belle Wista Wado, Sangolda", "postal_code": "403511", "locality": null}}, "209": {"name": "Coco Shambhala", "address": {"country": "India", "street": "Patrimonio", "postal_code": "403 114", "locality": null}}, "208": {"name": "Alegria - The Goan Village", "address": {"country": "India", "street": "Next to Health Centre", "postal_code": "403515", "locality": "Candolim"}}, "77": {"name": "A Concha Resort", "address": {"country": "India", "street": "Four Roads", "postal_code": "403708", "locality": "Calangute"}}, "76": {"name": "Exotic Palms", "address": {"country": "India", "street": "Naika Vado", "postal_code": "403516", "locality": "Calangute"}}, "75": {"name": "Jymis Cottages", "address": {"country": "India", "street": "Colva Beach", "postal_code": "403708", "locality": "Colva"}}, "74": {"name": "Star Beach Resort Goa", "address": {"country": "India", "street": "Near Foot Ball Ground, Colva Beach", "postal_code": "403708", "locality": "Colva"}}, "73": {"address": {"country": "India", "street": "Mapusa Panaji Road, Guirim Bypass Junction, Mapusa", "postal_code": "403507", "locality": "Mapusa"}, "location": {"lat": 28.2042533, "lon": 83.9653739}, "name": "Hotel Green Park"}, "72": {"address": {"country": "India", "street": "Baga Calangute Road", "postal_code": "403516", "locality": "Baga"}, "location": {"lat": 25.1498088, "lon": 73.4648138}, "name": "The Grand Chandra Resort"}, "71": {"address": {"country": "India", "street": "Margao", "postal_code": "403001", "locality": "Panaji"}, "location": {"lat": 14.9910591, "lon": 74.0428454}, "name": "Margao Residency"}, "70": {"address": {"country": "India", "street": "Fatrade Beach", "postal_code": "403721", "locality": "Varca"}, "location": {"lat": 15.21898425, "lon": 73.9333934043215}, "name": "Goa Beach House"}, "79": {"address": {"country": "India", "street": "Plot No 372/1-A,Village Anujuna", "postal_code": "403509", "locality": null}, "location": {"lat": 15.599258, "lon": 73.7433042510629}, "name": "Omega Beach Resort"}, "78": {"name": "Aldeia Bello", "address": {"country": "India", "street": "Cobrawado, Calangute Baga - North Goa", "postal_code": "403516", "locality": "Baga"}}, "8": {"address": {"country": "India", "street": "Maddo Vaddo", "postal_code": "403516", "locality": "Calangute"}, "location": {"lat": 15.5402383, "lon": 73.7582295}, "name": "NV Beach Resort"}, "120": {"name": "Resorte de Tio Carmino", "address": {"country": "India", "street": "Gaura Vaddo", "postal_code": "403516", "locality": "Calangute"}}, "121": {"address": {"country": "India", "street": "Main Road, Margoa", "postal_code": null, "locality": null}, "location": {"lat": 41.5794921, "lon": -1.11639118160642}, "name": "Paulino Hotel"}, "122": {"name": "Calangute Annex", "address": {"country": "India", "street": "Next to Calangute Beach", "postal_code": "403516", "locality": "Calangute"}}, "123": {"address": {"country": "India", "street": "Taj Holiday Village Road,Dando,", "postal_code": "403515", "locality": "Candolim"}, "location": {"lat": -8.4353173, "lon": -34.9817608}, "name": "Summerville Beach Resort"}, "124": {"address": {"country": "India", "street": "Beach Road, 474/1", "postal_code": "403506", "locality": "Vagator"}, "location": {"lat": 41.8425132, "lon": 2.1991519}, "name": "La Gulls Court"}, "125": {"name": "The Byke Old Anchor Resort", "address": {"country": "India", "street": "Cavelossim Beach", "postal_code": "403731", "locality": "Cavelossim"}}, "126": {"address": {"country": "India", "street": "Sequeira waddo", "postal_code": "403 515", "locality": "Candolim"}, "location": {"lat": 15.5138754, "lon": 73.7704994}, "name": "Valentines Retreat"}, "127": {"address": {"country": "India", "street": "Baga Road, near Infantaria Bakery", "postal_code": "403516", "locality": "Calangute"}, "location": {"lat": 26.445838, "lon": -81.8147689}, "name": "Resort Park Avenue"}, "128": {"name": "Colonia Jose' Menino Resort", "address": {"country": "India", "street": "Zalor Fatrade Varca", "postal_code": "403721", "locality": "Varca"}}, "129": {"name": "Zinho's Beach Resort", "address": {"country": "India", "street": "H No. 7/3, Tito's Rd,", "postal_code": null, "locality": "Baga"}}, "319": {"name": "Palmarinha Resort", "address": {"country": "India", "street": "Porbavaddo", "postal_code": "403516", "locality": "Calangute"}}, "318": {"name": "The Country Club De Goa Resort", "address": {"country": "India", "street": "836/1 Sorrento Vaddo,Behind Starco Junction", "postal_code": "403509", "locality": null}}, "313": {"name": "Hotel Palacio De Goa", "address": {"country": "India", "street": "Dr Gama Pinto Road", "postal_code": "403001", "locality": "Panaji"}}, "312": {"name": "Royal Haathi Mahal", "address": {"country": "India", "street": "Cavelossim Beach,Salcette,", "postal_code": "403 731", "locality": "Cavelossim"}}, "311": {"address": {"country": "India", "street": "Teen Murti,Atrade", "postal_code": "403721", "locality": "Varca"}, "location": {"lat": 15.21697195, "lon": 73.9322471764673}, "name": "Varca Palms Beach Resort"}, "310": {"name": "Hotel Colva Kinara", "address": {"country": "India", "street": "Near HDFC bank, Opp. Colva Football ground,D-Block, 4th ward", "postal_code": "403708", "locality": "Colva"}}, "317": {"name": "Novotel Goa Shrem Resort", "address": {"country": "India", "street": "Anna Waddo Main Candolim Road", "postal_code": "403515", "locality": "Candolim"}}, "316": {"address": {"country": "India", "street": "Post Box No 64", "postal_code": "403001", "locality": "Panaji"}, "location": {"lat": 15.4868443, "lon": 73.8095296}, "name": "Goa Marriott Resort & Spa"}, "315": {"name": "Sonesta Inns", "address": {"country": "India", "street": "Anna Vaddo", "postal_code": "403515", "locality": "Candolim"}}, "314": {"name": "The Baga Marina", "address": {"country": "India", "street": "Saunta-Khobra Wado", "postal_code": "403516", "locality": "Baga"}}, "3": {"name": "Pride Sun Village Resort and Spa", "address": {"country": "India", "street": "Saquwadi Baga-Arpora", "postal_code": "403518", "locality": "Arpora"}}, "368": {"name": "Phoenix Park Inn Resort", "address": {"country": "India", "street": "Sequera Vado", "postal_code": "403515", "locality": "Candolim"}}, "369": {"address": {"country": "India", "street": "Survey No 176/1,Varca Village", "postal_code": "403721", "locality": "Varca"}, "location": {"lat": 15.2236677, "lon": 73.9336445}, "name": "Club Mahindra Varca Beach"}, "366": {"address": {"country": "India", "street": "PO Marjorda", "postal_code": "403713", "locality": "Utorda"}, "location": {"lat": 15.31801725, "lon": 73.9010820103769}, "name": "Kenilworth Resort & Spa"}, "367": {"name": "Whispering Palms Beach Resort", "address": {"country": "India", "street": "Sinquerim Beach", "postal_code": "403515", "locality": "Candolim"}}, "364": {"name": "Golden Tulip Goa Candolim", "address": {"country": "India", "street": "315/A/G1-G5 & 315/B/G1-G2, Bamon Vaddo", "postal_code": "403515", "locality": "Candolim"}}, "365": {"address": {"country": "India", "street": "Opposite Holiday Street", "postal_code": "403515", "locality": "Calangute"}, "location": {"lat": 15.5328804, "lon": 73.7657478}, "name": "Ocean Palms Goa"}, "362": {"name": "Radisson Blu Resort Goa Cavelossim Beach", "address": {"country": "India", "street": "Cavelossim Beach", "postal_code": "403731", "locality": "Cavelossim"}}, "363": {"name": "Acron Waterfront Resort", "address": {"country": "India", "street": "On the seaward side of the Baga Bridge", "postal_code": "403515", "locality": "Baga"}}, "360": {"address": {"country": "India", "street": "Rangali, Betul", "postal_code": "403603", "locality": null}, "location": {"lat": 15.1382646, "lon": 73.9555793}, "name": "MAYFAIR Hideaway Spa Resort"}, "361": {"name": "De Alturas Resort", "address": {"country": "India", "street": "Baman Vaddo", "postal_code": "403515", "locality": "Candolim"}}, "380": {"address": {"country": "India", "street": "Sinquerim Rd Dando Beach", "postal_code": "403515", "locality": "Candolim"}, "location": {"lat": 15.5063327, "lon": 73.7695608}, "name": "Santana Beach Resort"}, "381": {"address": {"country": "India", "street": "Bamonvaddo", "postal_code": "403515", "locality": "Candolim"}, "location": {"lat": 45.30179595, "lon": -75.9086958907086}, "name": "Country Inn & Suites By Carlson"}, "382": {"name": "Park Hyatt Goa Resort and Spa", "address": {"country": "India", "street": "Arossim Beach", "postal_code": "403712", "locality": "Cansaulim"}}, "383": {"name": "Holiday Inn Resort Goa", "address": {"country": "India", "street": "Mobor Beach", "postal_code": "403 731", "locality": "Cavelossim"}}, "384": {"name": "Resort Terra Paraiso", "address": {"country": "India", "street": "Gauravvaddo", "postal_code": "403516", "locality": "Calangute"}}, "385": {"address": {"country": "India", "street": "48/10 Adao Wado", "postal_code": "403713", "locality": null}, "location": {"lat": 15.3061824, "lon": 73.9110772}, "name": "Alila Diwa Goa"}, "386": {"address": {"country": "India", "street": "P.O. Goa University", "postal_code": "403206", "locality": "Bambolim"}, "location": {"lat": 15.4514777, "lon": 73.8520395}, "name": "Grand Hyatt Goa"}, "387": {"address": {"country": "India", "street": "Raj Baga", "postal_code": "403702", "locality": null}, "location": {"lat": 14.9891666, "lon": 74.0390884887883}, "name": "The LaLiT Golf & Spa Resort Goa"}, "388": {"address": {"country": "India", "street": "Vainguinim Beach", "postal_code": "403004", "locality": "Dona Paula"}, "location": {"lat": 15.4564046, "lon": 73.8137390964196}, "name": "Cidade de Goa"}, "389": {"name": "Lemon Tree Amarante Beach Resort, Goa", "address": {"country": "India", "street": "Vadi, Candolim", "postal_code": "403515", "locality": "Candolim"}}, "252": {"address": {"country": "India", "street": "Vasvado", "postal_code": "403716", "locality": "Benaulim"}, "location": {"lat": 33.7952975, "lon": -116.4611242}, "name": "Royal Palms"}, "60": {"name": "Diana Resorts", "address": {"country": "India", "street": "Vagatur Beach", "postal_code": "403511", "locality": null}}, "61": {"name": "Carmo Lobo Beach Resort", "address": {"country": "India", "street": "Sequeria Vaddo Opp Candolim Health Centre", "postal_code": "403515", "locality": "Candolim"}}, "258": {"name": "Baywatch Beach Resort", "address": {"country": "India", "street": "Sernabatim Beach Road", "postal_code": "403708", "locality": "Colva"}}, "63": {"name": "Ala Goa Resort", "address": {"country": "India", "street": "Ranwaddo, Betalbatim, Near Coconut Grove,", "postal_code": "403713", "locality": null}}, "64": {"name": "Toor Resort", "address": {"country": "India", "street": "Mandrem Beach", "postal_code": "403527", "locality": "Mandrem"}}, "65": {"address": {"country": "India", "street": "Baga Main Road, Kobra Vaddo", "postal_code": "403516", "locality": "Calangute"}, "location": {"lat": 15.5691298, "lon": 73.7537219}, "name": "La Baga Beach Hotel"}, "66": {"address": {"country": "India", "street": "Next to TWD Fatorda", "postal_code": "403602", "locality": "Margao"}, "location": {"lat": -23.3537726, "lon": 43.6705662154762}, "name": "Sincro Hotel"}, "67": {"address": {"country": "India", "street": "House 115", "postal_code": "403710", "locality": "Cortalim"}, "location": {"lat": 38.8652015, "lon": -9.0623635}, "name": "Casa de Morgado"}, "68": {"address": {"country": "India", "street": "Quedevelim, Reis Magos, Verem", "postal_code": "403114", "locality": null}, "location": {"lat": 37.4195303, "lon": 24.8773022}, "name": "Dolphin Bay Hotel"}, "69": {"name": "Smiley Holidays", "address": {"country": "India", "street": "Naikawaddo , Behind Neelam Glitz", "postal_code": "403516", "locality": "Calangute"}}, "250": {"name": "LivingRoom by Seasons", "address": {"country": "India", "street": "Vagator Beach Road", "postal_code": "403509", "locality": "Vagator"}}, "251": {"name": "Cygnett Inn Celestiial", "address": {"country": "India", "street": "1168-O, Aguada - Siolim Rd", "postal_code": "403515", "locality": "Candolim"}}, "256": {"address": {"country": "India", "street": "Calangute-Baga Beach Road", "postal_code": "403516", "locality": "Calangute"}, "location": {"lat": 44.9517482, "lon": -92.9326812}, "name": "Hotel Windsor Bay"}, "257": {"name": "Annapurna Vishram Dhaam", "address": {"country": "India", "street": "#1061/1 Sim Vaddo", "postal_code": null, "locality": "Anjuna"}}, "254": {"name": "Nirvana Hermitage", "address": {"country": "India", "street": "955/2 Pequen Pedden", "postal_code": "403509", "locality": "Anjuna"}}, "255": {"address": {"country": "India", "street": "1091, Escrivao Vaddo, Opp. Novotel Hotel", "postal_code": null, "locality": "Candolim"}, "location": {"lat": 15.5262546, "lon": 73.7655134}, "name": "Banyan Tree Courtyard"}, "168": {"address": {"country": "India", "street": "H No 1435, Kannaikwado", "postal_code": "403512", "locality": "Morjim"}, "location": {"lat": 5.2133023, "lon": 103.2636234}, "name": "Turtle Beach Resort"}, "169": {"name": "Empire Beach Resort Hotel", "address": {"country": "India", "street": "Lane from St. Anthonys Chapel", "postal_code": "403516", "locality": "Calangute"}}, "164": {"name": "Colonia de Braganza Resorts", "address": {"country": "India", "street": "Behind Plantain Leaf Restaurant,", "postal_code": "403516", "locality": "Calangute"}}, "165": {"address": {"country": "India", "street": "Saunta Vaddo", "postal_code": "403516", "locality": "Saunta Vaddo"}, "location": {"lat": 33.6342563, "lon": -112.3213705}, "name": "Sun City Resort"}, "166": {"name": "Sai Residency Anjuna", "address": {"country": "India", "street": "Pequem Peddem, German Bakery Road", "postal_code": "403509", "locality": "Anjuna"}}, "167": {"address": {"country": "India", "street": "Luisa By the Sea", "postal_code": "403731", "locality": "Cavelossim"}, "location": {"lat": 15.1725498, "lon": 73.9444654}, "name": "Shikara Beach Resort"}, "160": {"address": {"country": "India", "street": "40/7 Saunta Vaddo", "postal_code": "403516", "locality": null}, "location": {"lat": 15.557429, "lon": 73.7537389}, "name": "Casa Baga"}, "161": {"name": "Radisson Goa Candolim", "address": {"country": "India", "street": "Fort Aguada Road", "postal_code": "403515", "locality": "Candolim"}}, "162": {"name": "Alor Grande Holiday Resort", "address": {"country": "India", "street": "Opp Primary Health Centre", "postal_code": "403515", "locality": "Candolim"}}, "163": {"name": "Paros by Amarya", "address": {"country": "India", "street": "Temba Vaddo", "postal_code": "403512", "locality": "Morjim"}}, "9": {"name": "Xavier Beach Resort", "address": {"country": "India", "street": "Fort Aguada Road, Opp State Bank Of India", "postal_code": "403515", "locality": "Candolim"}}, "357": {"name": "Shanti Morada", "address": {"country": "India", "street": "8 / 123, Bairo Alto, Vaddo", "postal_code": "403511", "locality": "Saligao"}}, "356": {"address": {"country": "India", "street": "Pinto Waddo", "postal_code": "403515", "locality": "Candolim"}, "location": {"lat": 15.5206071, "lon": 73.7696516}, "name": "Grand Mercure Goa Shrem Resort"}, "355": {"name": "Lazylagoon Sarovar Portico Suites", "address": {"country": "India", "street": "Baga,", "postal_code": "403518", "locality": "Baga"}}, "354": {"name": "Deltin Suites", "address": {"country": "India", "street": "Nerul-Candolim Road, Nerul", "postal_code": "403114", "locality": "Panaji"}}, "353": {"address": {"country": "India", "street": "Wadi", "postal_code": "403515", "locality": "Candolim"}, "location": {"lat": 33.5939157, "lon": -7.6176293}, "name": "Casablanca"}, "352": {"name": "Osborne Resort Goa", "address": {"country": "India", "street": "Near St. Anthony's Chapel Gauravaddo", "postal_code": "403516", "locality": "Calangute"}}, "351": {"address": {"country": "India", "street": "Naiko Wado,", "postal_code": "403516", "locality": "Calangute"}, "location": {"lat": 33.7988546, "lon": -117.9011848}, "name": "Tangerine Resort"}, "350": {"address": {"country": "India", "street": "Opposite to Don Bosco Hostel", "postal_code": "403516", "locality": "Calangute"}, "location": {"lat": 15.5367716, "lon": 73.7627736}, "name": "SinQ Beach Resort"}, "359": {"name": "Santa Monica Resorte", "address": {"country": "India", "street": "Poriat", "postal_code": "403516", "locality": "Calangute"}}, "358": {"name": "Colonia Santa Maria (CSM)", "address": {"country": "India", "street": null, "postal_code": "403516", "locality": "Baga"}}, "216": {"name": "Neemrana's Cabana Dempo", "address": {"country": "India", "street": "H No. 522, Firguem Bhat, Palem, Siridao Beach", "postal_code": "403001", "locality": "Panaji"}}, "217": {"address": {"country": "India", "street": "Dr. Dada Vaidya Road", "postal_code": "403001", "locality": "Panaji"}, "location": {"lat": 15.4978491, "lon": 73.8282726}, "name": "The Menino Regency"}, "214": {"name": "Raman Cottages", "address": {"country": "India", "street": "Khobrawaddo", "postal_code": "403516", "locality": "Calangute"}}, "215": {"name": "Deltin Palms", "address": {"country": "India", "street": "542 / 1, Village Penha-De-Franca, Brittona", "postal_code": "403 101", "locality": "Panaji"}}, "212": {"name": "Banyan Tree Yoga Goa", "address": {"country": "India", "street": "Near Mandrem football ground,ashve wada", "postal_code": "403512", "locality": "Mandrem"}}, "213": {"address": {"country": "India", "street": "Timbawadu", "postal_code": "403702", "locality": null}, "location": {"lat": 42.9769643, "lon": -70.6144199957387}, "name": "Oceanic Hotel"}, "210": {"name": "Prazeres Resorts", "address": {"country": "India", "street": "Marquis Waddo, beyond Nerul Bridge", "postal_code": "403515", "locality": "Candolim"}}, "211": {"name": "Kismat Mahal", "address": {"country": "India", "street": "E-1/221,Gauravaddo", "postal_code": "403516", "locality": "Calangute"}}, "218": {"name": "Bambolim Beach Resort", "address": {"country": "India", "street": "Nunes Beach Properties", "postal_code": "403005", "locality": "Panaji"}}, "219": {"name": "Ticlo Resorts", "address": {"country": "India", "street": "Opp Calangute Association Calangute-Baga Rd Umtavaddo", "postal_code": "403516", "locality": "Calangute"}}, "289": {"address": {"country": "India", "street": "18 June Road,", "postal_code": "403001", "locality": "Panaji"}, "location": {"lat": 15.4973392, "lon": 73.8249159}, "name": "Hotel Fidalgo"}, "288": {"name": "Joia Do Mar Resort", "address": {"country": "India", "street": "Porba Vaddo", "postal_code": "403516", "locality": "Calangute"}}, "4": {"name": "Fahrenheit Hotels and Resorts", "address": {"country": "India", "street": "Calangute - Baga Road, Casa Goa Lane", "postal_code": "403516", "locality": "Calangute"}}, "281": {"name": "Soul Vacation Resort and Spa", "address": {"country": "India", "street": "Ward No. 4", "postal_code": "403708", "locality": "Colva"}}, "280": {"name": "BEST WESTERN Devasthali Resort Goa", "address": {"country": "India", "street": "Village Issorcim, Hollant Beach", "postal_code": "403712", "locality": "Cansaulim"}}, "283": {"name": "Sukhmantra Resort and Spa", "address": {"country": "India", "street": "317/C, Bamon Vaddo", "postal_code": "415 515", "locality": "Candolim"}}, "282": {"name": "Lambana Resort", "address": {"country": "India", "street": "Near Sao Joao Baptista Chapel", "postal_code": "403516", "locality": "Calangute"}}, "285": {"name": "Ruffles Beach Resort", "address": {"country": "India", "street": "Fort Aguada Road", "postal_code": "403515", "locality": "Candolim"}}, "284": {"address": {"country": "India", "street": "Ashvem Beach", "postal_code": "403527", "locality": "Pernem"}, "location": {"lat": 15.6494837, "lon": 73.7159163}, "name": "Rococco Ashvem"}, "287": {"name": "Grandeur de Sanchi Beach Resort", "address": {"country": "India", "street": "Holiday Street, Gaurawaddo", "postal_code": "403516", "locality": "Calangute"}}, "286": {"address": {"country": "India", "street": "Naika Vaddo", "postal_code": "403516", "locality": "Calangute"}, "location": {"lat": 15.5441121, "lon": 73.7617233254921}, "name": "Adamo The Bellus Goa"}, "263": {"name": "The Diwa Club by Alila", "address": {"country": "India", "street": "Adao Waddo", "postal_code": "403713", "locality": "Majorda"}}, "262": {"name": "Pousada Tauma", "address": {"country": "India", "street": "Porba Vaddo", "postal_code": null, "locality": "Calangute"}}, "261": {"address": {"country": "India", "street": "Near Harimandir, Malbhat", "postal_code": "403 601", "locality": "Margao"}, "location": {"lat": 19.1633302, "lon": 72.8509569}, "name": "Hotel Panchsheel"}, "260": {"address": {"country": "India", "street": "Cobrawaddo", "postal_code": "403516", "locality": "Calangute"}, "location": {"lat": 42.98588325, "lon": -7.589178}, "name": "Hotel Santiago"}, "267": {"address": {"country": "India", "street": "83C Sinquerim Bardez", "postal_code": "403519", "locality": "Candolim"}, "location": {"lat": 15.497476, "lon": 73.7715002}, "name": "Bougainvillea Guest House Goa"}, "266": {"name": "Montego Bay Beach Village", "address": {"country": "India", "street": "Vithaldas Vaddo", "postal_code": "403512", "locality": "Morjim"}}, "265": {"address": {"country": "India", "street": "Dando", "postal_code": "403515", "locality": "Candolim"}, "location": {"lat": 15.5026494, "lon": 73.7709195}, "name": "Aldeia Santa Rita"}, "264": {"address": {"country": "India", "street": "Anjuna Beach Rd.", "postal_code": "403 509", "locality": "Anjuna"}, "location": {"lat": 15.5848408, "lon": 73.7390694}, "name": "Villa Anjuna"}, "269": {"address": {"country": "India", "street": null, "postal_code": "403 507", "locality": "Assagao"}, "location": {"lat": 46.18874495, "lon": -123.828319297029}, "name": "Hotel Astoria"}, "268": {"name": "Country Inn & Suites By Carlson - Goa Panjim", "address": {"country": "India", "street": "Plot no 31, EDC, Patto Plaza, Panjim", "postal_code": "403001", "locality": "Panaji"}}, "59": {"address": {"country": "India", "street": "Vithaldas Vaddo", "postal_code": "403512", "locality": "Morjim"}, "location": {"lat": 44.0210309, "lon": 12.6362485}, "name": "Hakuna Matata Beach Resort"}, "58": {"name": "Palmgrove Residency", "address": {"country": "India", "street": "House Number 142 Dias Ward", "postal_code": "403 731", "locality": null}}, "55": {"address": {"country": "India", "street": "Baga Beach", "postal_code": "403516", "locality": "Baga"}, "location": {"lat": 52.5226997, "lon": 13.3882776}, "name": "Hotel Riverside"}, "54": {"address": {"country": "India", "street": "Road Opp. Cafe Coffee Day", "postal_code": null, "locality": "Candolim"}, "location": {"lat": 28.50704415, "lon": -81.5199202791392}, "name": "Down \"Da\" Village"}, "57": {"name": "Antonios Paradise", "address": {"country": "India", "street": "Ashvem Beach", "postal_code": null, "locality": "Mandrem"}}, "56": {"name": "Jivana Plantation", "address": {"country": "India", "street": "Dandos Wadda", "postal_code": "403527", "locality": "Mandrem"}}, "51": {"address": {"country": "India", "street": "Khobra Vaddo,", "postal_code": "403516", "locality": "Calangute"}, "location": {"lat": 33.75152325, "lon": -116.718375758842}, "name": "Inspiration Guest House"}, "50": {"address": {"country": "India", "street": "Opposite Pharmacy College", "postal_code": "403401", "locality": "Ponda"}, "location": {"lat": 15.4144558, "lon": 73.9871632}, "name": "Farmagudi Residency"}, "53": {"address": {"country": "India", "street": "Prova Vaddo", "postal_code": "403516", "locality": "Calangute"}, "location": {"lat": 33.84812405, "lon": -116.853142598007}, "name": "Silent Resort"}, "52": {"address": {"country": "India", "street": "Holiday Street", "postal_code": "403516", "locality": "Calangute"}, "location": {"lat": 33.61198615, "lon": -117.925624950626}, "name": "Peninsula Beach Resort"}, "115": {"address": {"country": "India", "street": "336/0, Caluwaddo", "postal_code": "403716", "locality": "Benaulim"}, "location": {"lat": 36.797562, "lon": -76.0074809}, "name": "Clarion the Beach"}, "114": {"address": {"country": "India", "street": "124/3 Guaravaddo Candolim Road", "postal_code": "403516", "locality": "Calangute"}, "location": {"lat": 15.5321304, "lon": 73.7646137}, "name": "Sharanam Green"}, "117": {"address": {"country": "India", "street": "Candolim Beach Road", "postal_code": "403515", "locality": "Candolim"}, "location": {"lat": -35.7277085, "lon": 150.196705551842}, "name": "Ave Maria Beach Resort"}, "116": {"address": {"country": "India", "street": "Benaulim Beach Road", "postal_code": "403716", "locality": "Benaulim"}, "location": {"lat": 15.2575719, "lon": 73.9203669}, "name": "L'Amour Beach Resort"}, "111": {"name": "Sodder's Gloria Anne", "address": {"country": "India", "street": "Taj Hotel Road Opp Acron Shopping Mall", "postal_code": "403516", "locality": "Candolim"}}, "110": {"name": "Sodder's Renton Manor", "address": {"country": "India", "street": "Tambudki Village", "postal_code": "403515", "locality": "Arpora"}}, "113": {"name": "Mayem Lake View", "address": {"country": "India", "street": "Mapusa", "postal_code": null, "locality": "Bicholim"}}, "253": {"address": {"country": "India", "street": "Betalbatim beach", "postal_code": "403713", "locality": null}, "location": {"lat": 25.0544977, "lon": -77.3449064989464}, "name": "Coconut Grove"}, "119": {"name": "Senhor Angelo Resort", "address": {"country": "India", "street": "Umta Vaddo", "postal_code": "403516", "locality": "Calangute"}}, "118": {"address": {"country": "India", "street": "Near Ajaba Temple", "postal_code": "403527", "locality": "Mandrem"}, "location": {"lat": 7.8291678, "lon": 98.302766}, "name": "Boomerang Resort"}, "308": {"name": "Seashell Beach Suites", "address": {"country": "India", "street": "Vaddy", "postal_code": "403515", "locality": "Candolim"}}, "309": {"name": "Ancora Beach Resort", "address": {"country": "India", "street": "Near Club Tito's,baga beach,goa.", "postal_code": "403516", "locality": "Calangute"}}, "300": {"address": {"country": "India", "street": "Sequeira Vaddo,Near Primary Health Center", "postal_code": "403515", "locality": "Candolim"}, "location": {"lat": 15.5169614, "lon": 73.7697771}, "name": "Highland Beach Resort"}, "301": {"name": "Viva Calangute", "address": {"country": "India", "street": "155 / 9", "postal_code": "403516", "locality": "Calangute"}}, "302": {"name": "Azzure By Spree Hotels", "address": {"country": "India", "street": "H No. 2/16A Naika Vaddo", "postal_code": "403516", "locality": "Calangute"}}, "303": {"name": "Beleza...by the beach", "address": {"country": "India", "street": "Colva Beach", "postal_code": "403708", "locality": "Betalbatim"}}, "304": {"name": "Marbela Beach Resort", "address": {"country": "India", "street": "H.No 782 Gawade Wado", "postal_code": "403705", "locality": "Morjim"}}, "305": {"name": "Vivanta by Taj - Panaji", "address": {"country": "India", "street": "Off D. B. Bandodkar Road", "postal_code": "403001", "locality": "Panaji"}}, "306": {"address": {"country": "India", "street": "Pedda, Uttor Doxi, Varca Drafidila Layout, 4th Block", "postal_code": null, "locality": "Varca"}, "location": {"lat": 15.238719, "lon": 73.9297140774651}, "name": "Club Mahindra Emerald Palms"}, "307": {"name": "Dona Sylvia Beach Resort", "address": {"country": "India", "street": "Cavelossim Beach", "postal_code": "403731", "locality": "Cavelossim"}}, "229": {"address": {"country": "India", "street": "574 / 1, Riverside Street, Baga Riverview", "postal_code": "403516", "locality": "Baga"}, "location": {"lat": 37.38784, "lon": -121.997351796283}, "name": "16 Degrees North"}, "228": {"address": {"country": "India", "street": "854 Camotim Vado", "postal_code": "403515", "locality": "Candolim"}, "location": {"lat": 15.5129019, "lon": 73.7686912}, "name": "Casa Candolim"}, "227": {"name": "Opus by the Meraden", "address": {"country": "India", "street": "Flea Market Road", "postal_code": null, "locality": "Anjuna"}}, "226": {"name": "Graciano Cottages", "address": {"country": "India", "street": "4th Ward, Colva Beach", "postal_code": "403708", "locality": "Colva"}}, "225": {"name": "Chalston Beach Resort", "address": {"country": "India", "street": "Beach Street , Khobra Vaddo , Calangute", "postal_code": "403516", "locality": "Calangute"}}, "224": {"name": "The Golden Crown Hotel & Spa Colva", "address": {"country": "India", "street": "Beach Road", "postal_code": "403708", "locality": "Colva"}}, "223": {"address": {"country": "India", "street": "Colva Beach", "postal_code": "403 708", "locality": "Colva"}, "location": {"lat": 15.31800675, "lon": 73.9010848649478}, "name": "Longuinhos Beach Resort"}, "222": {"name": "Goa - Club Estadia, A Sterling Holidays Resort", "address": {"country": "India", "street": null, "postal_code": "403521", "locality": "Alto-Porvorim"}}, "221": {"address": {"country": "India", "street": "Bimmut Ward", "postal_code": "403806", "locality": "Bogmalo"}, "location": {"lat": 26.2714628, "lon": -80.181808457009}, "name": "Coconut Creek"}, "220": {"name": "Devaaya Ayurveda Retreat", "address": {"country": "India", "street": "Malar", "postal_code": "403403", "locality": null}}, "391": {"address": {"country": "India", "street": "Mobor", "postal_code": "403731", "locality": "Cavelossim"}, "location": {"lat": 15.1566824, "lon": 73.9484633}, "name": "The Leela Goa"}, "390": {"name": "Estrela Do Mar Beach Resort", "address": {"country": "India", "street": "Khobra Vaddo", "postal_code": "403516", "locality": "Calangute"}}, "151": {"name": "Palm Beach Lifestyle Resort", "address": {"country": "India", "street": "Palm Beach Lifestyle Resort", "postal_code": "403702", "locality": "Agonda"}}, "150": {"name": "Goveia Holiday Homes", "address": {"country": "India", "street": "Lane Opposite Cafe Coffee Day", "postal_code": "403515", "locality": "Candolim"}}, "153": {"address": {"country": "India", "street": "Cabrawaddo, Off Calangute Baga Road", "postal_code": "403516", "locality": "Calangute"}, "location": {"lat": 36.4564695, "lon": -5.057796}, "name": "Sun Park Resort"}, "152": {"address": {"country": "India", "street": "Gaura Vaddo", "postal_code": "403516", "locality": "Calangute"}, "location": {"lat": 15.534982, "lon": 73.7645422}, "name": "Hotel Dona Terezinha"}, "155": {"name": "Tito's Beach Retreat (A Boutique Resort)", "address": {"country": "India", "street": "Dando Vaddo, Near Kingfisher Villa, North Goa", "postal_code": "403515", "locality": "Candolim"}}, "154": {"address": {"country": "India", "street": "Swatantra Path", "postal_code": "403802", "locality": "Vasco da Gama"}, "location": {"lat": 38.01489035, "lon": -3.37297765538333}, "name": "Hotel La Paz Gardens"}, "157": {"address": {"country": "India", "street": "Caetano de Albuquerque Road", "postal_code": "403001", "locality": "Panaji"}, "location": {"lat": 43.50356985, "lon": 16.4757082320254}, "name": "Hotel Delmon"}, "156": {"address": {"country": "India", "street": "4th Ward", "postal_code": "403708", "locality": "Colva"}, "location": {"lat": 15.2769945, "lon": 73.9146863}, "name": "Colva Residency"}, "159": {"address": {"country": "India", "street": "Escrivao Vaddo, Candolim, Bardez", "postal_code": "403515", "locality": "Candolim"}, "location": {"lat": 15.5257958, "lon": 73.7621505}, "name": "Aashyana Lakhanpal"}, "158": {"address": {"country": "India", "street": "Arpora-Baga Road", "postal_code": "403 518", "locality": "Calangute"}, "location": {"lat": 15.5691298, "lon": 73.7537219}, "name": "Royal Monterio"}, "112": {"name": "Maizons Lake View Resorts", "address": {"country": "India", "street": "502/1 Sankawadi, Arpora", "postal_code": "403518", "locality": "Arpora"}}, "83": {"name": "La Vaiencia Beach Resort", "address": {"country": "India", "street": "Tembwada,", "postal_code": "403512", "locality": "Morjim"}}, "48": {"name": "Hotel Riversal by the Sea", "address": {"country": "India", "street": "Post Zuem, Betul", "postal_code": "403603", "locality": null}}, "49": {"address": {"country": "India", "street": "Saunta Vaddo", "postal_code": "403516", "locality": "Calangute"}, "location": {"lat": 15.5613383, "lon": 73.7537244}, "name": "Lua Nova Hotel"}, "46": {"address": {"country": "India", "street": "Isidorio Bapista Road,", "postal_code": "403601", "locality": "Ponda"}, "location": {"lat": 38.9213763, "lon": -77.0419413}, "name": "Hotel Jyoti Plaza"}, "47": {"address": {"country": "India", "street": "Samrat Ashok Theater Complex 18th June Road", "postal_code": "403001", "locality": "Panaji"}, "location": {"lat": 22.6422014, "lon": 88.4323903}, "name": "Ashok Plaza Hotel"}, "44": {"name": "The Mandovi Riviera", "address": {"country": "India", "street": "D. B. Marg", "postal_code": null, "locality": "Panaji"}}, "45": {"address": {"country": "India", "street": "Ruamidio Gracia Road", "postal_code": "403001", "locality": "Panaji"}, "location": {"lat": 53.74776755, "lon": -0.303794885206649}, "name": "Embassy Hotel"}, "42": {"address": {"country": "India", "street": "181/1, Bella-Vista", "postal_code": "403511", "locality": null}, "location": {"lat": 13.0363286, "lon": 80.2679907}, "name": "Hotel Picnic Plaza"}, "43": {"address": {"country": "India", "street": "H No. 511, (5)", "postal_code": "403519", "locality": "Vagator"}, "location": {"lat": 15.600274, "lon": 73.7371949}, "name": "Jolly Jolly Lester"}, "40": {"address": {"country": "India", "street": "7/225/a Saunta Vaddo", "postal_code": null, "locality": "Calangute"}, "location": {"lat": 15.55562435, "lon": 73.7527819997303}, "name": "The Baga Beach Resort"}, "41": {"name": "Shawnels Beach Resort", "address": {"country": "India", "street": "Ourem, Palolem Beach", "postal_code": "403702", "locality": "Palolem"}}, "5": {"address": {"country": "India", "street": "Opp German Bakery, Ourem", "postal_code": "403702", "locality": "Palolem"}, "location": {"lat": 15.0034487, "lon": 74.0289278}, "name": "Palolem Inn"}}, "bali": {"216": {"location": {"lat": -8.70915735, "lon": 115.258627167028}, "name": "Puri Santrian", "address": {"country": "Indonesia", "street": "Jl. Cemara 35"}}, "217": {"location": {"lat": -8.7332892, "lon": 115.1660191}, "name": "Bintang Kuta Hotel", "address": {"country": "Indonesia", "street": "Jalan Kartika Plaza"}}, "214": {"location": {"lat": 10.7319434, "lon": 7.662829}, "name": "Amana Villas", "address": {"country": null, "street": null}}, "215": {"location": {"lat": -8.7322105, "lon": 115.2123544}, "name": "The Puri Nusa Dua", "address": {"country": "Indonesia", "street": "Jalan Raya Nusa Dua Selatan"}}, "212": {"location": {"lat": 47.5581077, "lon": 7.5878261}, "name": "The Bale", "address": {"country": null, "street": null}}, "213": {"name": "Swiss-Belinn Legian", "address": {"country": "Indonesia", "street": "Jl. Padma Utara, Legian,"}}, "210": {"name": "Bali Mandira Beach Resort & Spa", "address": {"country": null, "street": null}}, "211": {"name": "Park Regis Kuta Bali", "address": {"country": "Indonesia", "street": "Jalan Raya Kuta 88"}}, "165": {"name": "Ulu Segara Luxury Suites & Villas", "address": {"country": "Indonesia", "street": "Jl. Raya Nusa Dua Selatan"}}, "264": {"name": "The Trans Resort Bali", "address": {"country": null, "street": null}}, "218": {"location": {"lat": 40.2678429, "lon": 22.5970916}, "name": "White Rose Hotel & Villas", "address": {"country": "Indonesia", "street": "Jl Legian Kuta"}}, "219": {"name": "Anantara Bali Uluwatu Resort & Spa Bali", "address": {"country": null, "street": null}}, "133": {"name": "Ibis Styles Bali Kuta Legian", "address": {"country": "Indonesia", "street": "Jalan Dewi Sri No 17"}}, "132": {"name": "Kind Villa Bintang Resort & Spa", "address": {"country": "Indonesia", "street": "Pratama Street"}}, "131": {"location": {"lat": -8.5203344, "lon": 115.257504}, "name": "Saren Indah Hotel", "address": {"country": null, "street": null}}, "130": {"name": "The Purist Villas and Spa", "address": {"country": null, "street": null}}, "137": {"name": "The Mansion Resort Hotel & Spa", "address": {"country": "Indonesia", "street": "Jl. Penestanan, Sayan"}}, "136": {"location": {"lat": 39.9490906, "lon": -75.1648643535908}, "name": "Love F Hotel", "address": {"country": "Indonesia", "street": "Raya Legian Street No. 121"}}, "135": {"name": "WakaGangga", "address": {"country": "Indonesia", "street": "Jl. Pantai Yeh Gangga, Desa Sudimara"}}, "134": {"name": "Nandini Bali Resort & Spa Ubud", "address": {"country": "Indonesia", "street": null}}, "139": {"location": {"lat": -8.5122612, "lon": 115.2380542}, "name": "Bambu Indah", "address": {"country": "Indonesia", "street": "Banjar Baung"}}, "138": {"name": "Patra Jasa Bali Resort & Villas", "address": {"country": "Indonesia", "street": "Jl. Ir. H. Juanda"}}, "225": {"name": "The Laguna, a Luxury Collection Resort & Spa", "address": {"country": null, "street": null}}, "24": {"name": "Nusa Dua Retreat and Spa", "address": {"country": "Indonesia", "street": "JL.Melasti II No 88, Kutuh Nusa Dua"}}, "25": {"name": "Tarci Bungalow", "address": {"country": "Indonesia", "street": "Jungutbatu"}}, "26": {"location": {"lat": 36.59511805, "lon": -4.52296614530043}, "name": "B Hotel Bali", "address": {"country": "Indonesia", "street": "Jl. Imam Bonjol No. 508"}}, "27": {"location": {"lat": -8.4795438, "lon": 115.4414462}, "name": "Surya Shanti Villa", "address": {"country": "Indonesia", "street": "Br. Tebola"}}, "20": {"name": "Destiny Boutique Hotel", "address": {"country": "Indonesia", "street": "Jl. Drupadi no. 10"}}, "21": {"name": "Alila Villas Soori", "address": {"country": "Indonesia", "street": "Banjar Dukuh, Desa Kelating"}}, "22": {"name": "Spa Village Resort Tembok Bali", "address": {"country": null, "street": null}}, "23": {"name": "Lembongan Beach Club and Resort", "address": {"country": null, "street": null}}, "95": {"name": "The Sanyas Suite Seminyak", "address": {"country": "Indonesia", "street": "Jl. Cendrawasih No. 9"}}, "28": {"name": "HARRIS Hotel & Residences Riverview Kuta", "address": {"country": null, "street": null}}, "29": {"location": {"lat": -8.7227319, "lon": 115.1759002}, "name": "Kuta Station Hotel", "address": {"country": "Indonesia", "street": "8x Kartika Plaza Street"}}, "94": {"name": "Bliss Surfer Hotel", "address": {"country": "Indonesia", "street": "Jl. Sriwijaya, No. 88"}}, "289": {"location": {"lat": -8.6847833, "lon": 115.15340230553}, "name": "The Samaya Bali", "address": {"country": "Indonesia", "street": "Jl. Laksmana"}}, "0": {"location": {"lat": -8.8016122, "lon": 115.2239813}, "name": "The Grand Bali Nusa Dua", "address": {"country": null, "street": null}}, "4": {"location": {"lat": -8.703718, "lon": 115.1683313}, "name": "All Seasons Legian Bali", "address": {"country": null, "street": null}}, "281": {"name": "Courtyard by Marriott Bali Seminyak", "address": {"country": null, "street": null}}, "8": {"name": "Balibaliku Beach Front Luxury Private Pool Villa", "address": {"country": "Indonesia", "street": "Jl. Bukit Permai 5A, Jimbaran - Bali"}}, "283": {"name": "Four Seasons Resort Bali at Sayan", "address": {"country": null, "street": null}}, "282": {"name": "Risata Bali Resort & Spa", "address": {"country": "Indonesia", "street": "Jalan Wana Segara"}}, "285": {"name": "Fairmont Sanur Beach Bali", "address": {"country": null, "street": null}}, "284": {"name": "Luna2 Studiotel", "address": {"country": null, "street": null}}, "287": {"name": "Padma Resort Legian", "address": {"country": null, "street": null}}, "286": {"name": "The St. Regis Bali Resort", "address": {"country": null, "street": null}}, "120": {"name": "Grand Istana Rama Hotel Bali", "address": {"country": null, "street": null}}, "121": {"name": "Mercure Resort Sanur", "address": {"country": null, "street": null}}, "122": {"name": "Villa Sarna Ubud", "address": {"country": "Indonesia", "street": "Banjar Tangkup"}}, "123": {"name": "Artemis Villa and Hotel", "address": {"country": "Indonesia", "street": "JI.Camplung Tanduk"}}, "124": {"location": {"lat": 13.6913546, "lon": -89.2439113}, "name": "Mega Boutique Hotel", "address": {"country": "Indonesia", "street": "Jalan by Pass Ngurah Rai No 259, Simpang Siur"}}, "125": {"name": "Hu'u Villas Bali", "address": {"country": null, "street": null}}, "265": {"location": {"lat": -8.7236315, "lon": 115.1697356}, "name": "Grand Inna Kuta", "address": {"country": "Indonesia", "street": "Jalan Pantai Kuta No.1"}}, "127": {"location": {"lat": -8.4407977, "lon": 114.9856043}, "name": "Hotel Vila Lumbung", "address": {"country": "Indonesia", "street": "Jalan Raya Petitenget, No. 1000 X"}}, "128": {"name": "The Akmani Legian", "address": {"country": "Indonesia", "street": "Jalan Raya Legian No. 91"}}, "129": {"location": {"lat": -8.7195632, "lon": 115.1748113}, "name": "Legian Paradiso Hotel", "address": {"country": "Indonesia", "street": "Jalan Legian No. 118, Denpasar"}}, "269": {"name": "Mulia Resort", "address": {"country": null, "street": null}}, "268": {"location": {"lat": -8.8445387, "lon": 115.1649958}, "name": "Karma Kandara", "address": {"country": null, "street": null}}, "167": {"name": "The Gangsa Private Villa by Kayumanis", "address": {"country": "Indonesia", "street": "Jalan Tirta Akasa 28"}}, "176": {"name": "Hotel Santika Siligita Nusa Dua", "address": {"country": "Indonesia", "street": "Jalan Pintas Siligita 3A Banjar Peminge"}}, "236": {"location": {"lat": 5.216667, "lon": 7.2}, "name": "The Amala", "address": {"country": null, "street": null}}, "91": {"location": {"lat": -8.6908357, "lon": 115.1641975}, "name": "The Alea Hotel Seminyak", "address": {"country": "Indonesia", "street": "Jl. Cenderawasih no. 78"}}, "59": {"name": "The Layar - Designer Villas and Spa", "address": {"country": null, "street": null}}, "58": {"location": {"lat": 45.5464155, "lon": -0.2173035}, "name": "Grand La Villais Hotel", "address": {"country": "Indonesia", "street": "Jl. Pangkung Sari, Banjar Taman"}}, "55": {"location": {"lat": 5.5783766, "lon": 95.3287785}, "name": "Mulia Villas", "address": {"country": null, "street": null}}, "54": {"name": "Peneeda View Beach Hotel", "address": {"country": "Indonesia", "street": "Jl, Danau Tamblingan 89"}}, "57": {"name": "The Radiant Hotel and Spa", "address": {"country": "Indonesia", "street": "Jl. Puri Grenceng 46"}}, "56": {"location": {"lat": -8.2774092, "lon": 115.5918869}, "name": "Tulamben Wreck Divers Resort", "address": {"country": null, "street": null}}, "51": {"name": "Sun Island Hotel Kuta", "address": {"country": "Indonesia", "street": "Jl. Kartika Plaza 88"}}, "50": {"location": {"lat": 48.8271845, "lon": 2.3572886}, "name": "Club Med Bali", "address": {"country": null, "street": null}}, "53": {"name": "Chapung SeBali Resort and Spa", "address": {"country": "Indonesia", "street": "Jalan Raya Sebali, Keliki"}}, "52": {"name": "Swiss-Belresort Watu Jimbar", "address": {"country": "Indonesia", "street": "Jl. Danau Tamblingan No. 99A"}}, "259": {"name": "Citadines Kuta Beach Bali", "address": {"country": "Indonesia", "street": "Jalan Pantai Kuta"}}, "298": {"location": {"lat": -8.51287745, "lon": 115.256748333591}, "name": "Komaneka at Bisma", "address": {"country": "Indonesia", "street": "Jalan Bisma"}}, "299": {"name": "Wapa di Ume Resort and Spa", "address": {"country": null, "street": null}}, "296": {"location": {"lat": 36.6068458, "lon": -4.50993729201848}, "name": "Fontana Hotel Bali", "address": {"country": "Indonesia", "street": "Jl. Dewi Sri 68, Legian"}}, "297": {"name": "Four Seasons Resort Bali at Jimbaran Bay", "address": {"country": null, "street": null}}, "294": {"name": "Komaneka at Monkey Forest", "address": {"country": "Indonesia", "street": "Jalan Monkey Forest"}}, "295": {"location": {"lat": -8.7600158, "lon": 115.2216144}, "name": "Novotel Bali Benoa", "address": {"country": null, "street": null}}, "292": {"location": {"lat": -8.491387, "lon": 115.2469781}, "name": "Kupu Kupu Barong Villas and Tree Spa", "address": {"country": null, "street": null}}, "293": {"location": {"lat": -8.5050009, "lon": 115.5577204}, "name": "Rama Candidasa Resort & Spa", "address": {"country": "Indonesia", "street": "Jl Raya Sengkidu, Candidasa Beach"}}, "290": {"location": {"lat": 33.5838384, "lon": -112.3209576}, "name": "Grand Mirage Resort", "address": {"country": null, "street": null}}, "291": {"location": {"lat": -8.7178355, "lon": 115.1692272}, "name": "Sheraton Bali Kuta Resort", "address": {"country": null, "street": null}}, "164": {"name": "The Dipan Resort Petitenget", "address": {"country": null, "street": null}}, "201": {"name": "The Breezes Bali Resort & Spa", "address": {"country": "Indonesia", "street": "JL Camplung Tanduk 66"}}, "319": {"location": {"lat": -8.7196994, "lon": 115.1694203}, "name": "Kuta Seaview Boutique Resort & Spa", "address": {"country": "Indonesia", "street": "Jalan Pantai Kuta"}}, "318": {"location": {"lat": -8.79169595, "lon": 115.229956082127}, "name": "Sofitel Bali Nusa Dua Beach Resort", "address": {"country": null, "street": null}}, "199": {"location": {"lat": 4.5719415, "lon": 95.8788341}, "name": "Villa Kubu", "address": {"country": null, "street": null}}, "198": {"name": "Mercure Bali Legian", "address": {"country": null, "street": null}}, "200": {"name": "Bali Shangrila Beach Club", "address": {"country": "Indonesia", "street": null}}, "313": {"name": "Banyan Tree Ungasan, Bali", "address": {"country": null, "street": null}}, "312": {"name": "Kamandalu Ubud", "address": {"country": null, "street": null}}, "197": {"name": "Satriya Cottages", "address": {"country": null, "street": null}}, "310": {"location": {"lat": -8.7214493, "lon": 115.1710618}, "name": "Hard Rock Hotel Bali", "address": {"country": null, "street": null}}, "191": {"name": "The Haven Seminyak Hotel & Suites", "address": {"country": "Indonesia", "street": "Jl. Raya Seminyak 500"}}, "190": {"name": "Mantra Sakala Resort & Beach Club, Bali", "address": {"country": "Indonesia", "street": "Jl. Pratama 95"}}, "193": {"name": "Sun Island Villas & Spa", "address": {"country": "Indonesia", "street": "Jalan Seminyak 188"}}, "192": {"name": "Nefatari Exclusive Villas", "address": {"country": "Indonesia", "street": "Banjar Katiklantang-Desa Singekerta"}}, "115": {"name": "H Sovereign Bali", "address": {"country": null, "street": null}}, "271": {"name": "The Kana Kuta", "address": {"country": "Indonesia", "street": "8, Setiabudi street, Kuta"}}, "88": {"location": {"lat": -1.263695, "lon": 36.8025794}, "name": "The Open House", "address": {"country": null, "street": null}}, "89": {"name": "PING Hotel Seminyak Bali", "address": {"country": "Indonesia", "street": "Jl. Camplung Tanduk no. 28"}}, "111": {"name": "FuramaXclusive Ocean Beach", "address": {"country": "Indonesia", "street": "JI Arjuna 88X"}}, "110": {"name": "Holiday Inn Express Bali Raya Kuta", "address": {"country": null, "street": null}}, "113": {"name": "Royal Candidasa: Royal Bali Beach Club", "address": {"country": "Indonesia", "street": "Puri Buitan"}}, "112": {"name": "Liberty Dive Resort", "address": {"country": "Indonesia", "street": "Jalan Raya Tulamben"}}, "82": {"name": "The Segara Suites", "address": {"country": "Indonesia", "street": "Jl. Segara Windu no. 1"}}, "83": {"name": "Amaroossa Suite Bali", "address": {"country": "Indonesia", "street": "Jl. Kebo Iwa no. 2 Taman Mumbul"}}, "80": {"location": {"lat": 4.612326, "lon": 101.0643102}, "name": "Bunga Permai Hotel", "address": {"country": null, "street": null}}, "81": {"location": {"lat": -6.979248, "lon": 109.6087303}, "name": "The Menjangan", "address": {"country": null, "street": null}}, "119": {"name": "Villa Air Bali Boutique Resort & Spa", "address": {"country": null, "street": null}}, "118": {"name": "Bali Niksoma Boutique Beach Resort", "address": {"country": "Indonesia", "street": "Jl. Padma Utara Legian Kaja"}}, "84": {"name": "Centra Taum Seminyak Bali", "address": {"country": null, "street": null}}, "85": {"name": "Ananta Legian Hotel", "address": {"country": "Indonesia", "street": "Jl. Werkudara no. 539"}}, "117": {"location": {"lat": 51.9041671, "lon": 4.48463397116437}, "name": "Dewi Sri Hotel", "address": {"country": "Indonesia", "street": "Jalan Legian"}}, "251": {"name": "Hotel Terrace At Kuta", "address": {"country": null, "street": null}}, "207": {"location": {"lat": -8.5063477, "lon": 115.2540036}, "name": "Sri Ratih Cottages", "address": {"country": "Indonesia", "street": "Jl. Campuhan 1, Penestanan Kelod"}}, "256": {"name": "Holiday Inn Express Bali Kuta Square", "address": {"country": null, "street": null}}, "206": {"location": {"lat": -8.6862504, "lon": 115.2626219}, "name": "Kejora Suites", "address": {"country": "Indonesia", "street": "Jalan Danau Tamblingan No 25"}}, "257": {"location": {"lat": 12.94686925, "lon": 9.89163282709927}, "name": "Damai", "address": {"country": "Indonesia", "street": "Jalan Damai"}}, "3": {"name": "The Seminyak Suite Private Villa", "address": {"country": "Indonesia", "street": "Jalan Raya Seminyak No 17"}}, "177": {"name": "EDEN Hotel Kuta Bali - Managed by Tauzia", "address": {"country": null, "street": null}}, "254": {"name": "Awarta Nusa Dua Luxury Villas & Spa", "address": {"country": null, "street": null}}, "7": {"name": "Ungasan Hotel & Convention Center", "address": {"country": "Indonesia", "street": "Jl. Raya Uluwatu, Br. Giri Dharma"}}, "255": {"location": {"lat": -8.7734695, "lon": 115.1720429}, "name": "Gending Kedis Villas & Spa Estate", "address": {"country": "Indonesia", "street": "Jalan Karang Mas Sejahtera"}}, "166": {"name": "Ibis Styles Bali Benoa", "address": {"country": "Indonesia", "street": "Jl Pratama 57A"}}, "68": {"name": "Svarga Loka Resort", "address": {"country": "Indonesia", "street": "Jl.Campuhan 1, Penestanan Kelod"}}, "308": {"name": "Ramayana Resort & Spa", "address": {"country": "Indonesia", "street": "Jalan Bakung Sari"}}, "309": {"name": "Uma by COMO, Ubud", "address": {"country": null, "street": null}}, "300": {"name": "Grand Aston Bali Beach Resort", "address": {"country": "Indonesia", "street": "Jl Pratama No 68x"}}, "301": {"name": "Ayung Resort Ubud", "address": {"country": null, "street": null}}, "302": {"location": {"lat": -8.8042529, "lon": 115.232505584369}, "name": "Grand Hyatt Bali", "address": {"country": null, "street": null}}, "303": {"name": "The Kayon Resort", "address": {"country": "Indonesia", "street": "Jalan Raya Kendran, Tegalalang"}}, "304": {"name": "The Seminyak Beach Resort & Spa", "address": {"country": null, "street": null}}, "305": {"name": "Atanaya Hotel", "address": {"country": "Indonesia", "street": "Sunset Road 88A, Kuta"}}, "306": {"name": "The Stones Hotel - Legian Bali, Autograph Collection", "address": {"country": null, "street": null}}, "307": {"name": "Bulgari Resort Bali", "address": {"country": "Indonesia", "street": "Jalan Goa Lempeh, Banjar Dinas Kangin"}}, "245": {"name": "Abi Bali Resort & Villa", "address": {"country": "Indonesia", "street": "Jl. Karang Mas Sejahtera no. 89"}}, "244": {"location": {"lat": -8.5150292, "lon": 115.2605313}, "name": "Ubud Bungalow", "address": {"country": "Indonesia", "street": "Monkey Forest St."}}, "247": {"location": {"lat": -8.7367699, "lon": 115.1658184}, "name": "Aston Kuta Hotel & Residence", "address": {"country": "Indonesia", "street": "Jl. Wana Segara No. 2-5"}}, "109": {"location": {"lat": 4.4802043, "lon": 96.336028}, "name": "Tegal Sari", "address": {"country": null, "street": null}}, "241": {"name": "Aria Villas Ubud", "address": {"country": null, "street": null}}, "240": {"name": "Royal Jimbaran: Royal Bali Beach Club", "address": {"country": "Indonesia", "street": "Uluwatu"}}, "243": {"location": {"lat": -8.6922622, "lon": 115.1590014}, "name": "Anantara Seminyak Resort & Spa, Bali", "address": {"country": null, "street": null}}, "242": {"name": "Mutiara Bali Boutique Resort & Villas", "address": {"country": "Indonesia", "street": "Jl. Braban No. 77 x Banjar Taman"}}, "102": {"location": {"lat": -8.7199629, "lon": 115.1702035}, "name": "Kuta Puri Bungalows", "address": {"country": null, "street": null}}, "103": {"name": "Hotel Tjampuhan & Spa", "address": {"country": "Indonesia", "street": "Jl. Raya Tjampuhan"}}, "100": {"location": {"lat": -8.73534465, "lon": 115.167726335913}, "name": "The Vira Bali Hotel", "address": {"country": null, "street": null}}, "101": {"name": "Bhavana Private Villas", "address": {"country": "Indonesia", "street": "Jalan Pangkung Sari, Banjar Taman"}}, "106": {"location": {"lat": 44.6107926, "lon": 11.5217679}, "name": "The Club Villas", "address": {"country": "Indonesia", "street": "Jl. Laksmana"}}, "107": {"name": "Bebek Tepi Sawah Villas & Spa", "address": {"country": null, "street": null}}, "104": {"location": {"lat": -8.5170222, "lon": 115.2644853}, "name": "Biyukukung Suites and Spa", "address": {"country": "Indonesia", "street": "Jalan Sugriwa No 89"}}, "105": {"name": "Batu Karang Lembongan Resort & Day Spa", "address": {"country": null, "street": null}}, "39": {"name": "HARRIS Hotel Bukit Jimbaran", "address": {"country": null, "street": null}}, "38": {"location": {"lat": -8.5170766, "lon": 115.2604064}, "name": "Champlung Sari Hotel", "address": {"country": "Indonesia", "street": "Monkey Forest Street"}}, "33": {"name": "Hotel NEO + Kuta Legian", "address": {"country": "Indonesia", "street": "Jl. Troppozone no. 8 Legian"}}, "32": {"location": {"lat": -1.3110452, "lon": 36.8365224}, "name": "Bounty Hotel", "address": {"country": "Indonesia", "street": "Gang Poppies 2 # 18"}}, "31": {"name": "Puri Dajuma Cottages", "address": {"country": "Indonesia", "street": "Pekutatan"}}, "30": {"location": {"lat": 12.5378702, "lon": 12.5803565}, "name": "Amandari", "address": {"country": "Indonesia", "street": "Jalan Raya Kedewatan"}}, "37": {"location": {"lat": -8.6743257, "lon": 115.15838395}, "name": "Ivory Resort Seminyak", "address": {"country": "Indonesia", "street": "Jln. Raya Petitenget 35, Banjar Umasari"}}, "108": {"name": "Santi Mandala", "address": {"country": "Indonesia", "street": "Br Bucuan Batuan, Sukawati"}}, "35": {"location": {"lat": -8.6920709, "lon": 115.1613678}, "name": "Grandmas Seminyak Hotel", "address": {"country": null, "street": null}}, "34": {"location": {"lat": -8.5344381, "lon": 115.4901597}, "name": "Bloo Lagoon Village", "address": {"country": "Indonesia", "street": "Jl. Silayukti"}}, "246": {"name": "Swiss-Belhotel Segara Resort & Spa", "address": {"country": "Indonesia", "street": "Jalan Pura Segara"}}, "162": {"location": {"lat": 35.6333333, "lon": 35.95}, "name": "Le Jardin Villas", "address": {"country": null, "street": null}}, "160": {"location": {"lat": 44.2989485, "lon": 9.4804466}, "name": "The One Villa", "address": {"country": "Indonesia", "street": "JL. Cendrawasih No. 99, Petitenget"}}, "263": {"location": {"lat": -8.7860258, "lon": 115.2257471}, "name": "Bali Tropic Resort and Spa", "address": {"country": "Indonesia", "street": "Jl. Pratama 34A"}}, "194": {"name": "Puri Gangga Resort", "address": {"country": null, "street": null}}, "335": {"location": {"lat": -8.82561335, "lon": 115.218575391665}, "name": "Grand Nikko Bali", "address": {"country": "Indonesia", "street": "Jl Raya Nusa Dua Selatan"}}, "334": {"name": "Uppala Villa Seminyak", "address": {"country": "Indonesia", "street": "Jalan Intan Permai No.18"}}, "169": {"location": {"lat": -3.7009423, "lon": 137.9646835}, "name": "The Mulia", "address": {"country": null, "street": null}}, "331": {"location": {"lat": -8.73304615, "lon": 115.176354445945}, "name": "BEST WESTERN Kuta Villa", "address": {"country": "Indonesia", "street": "Jl. Nyang Nyang Sari No. 2"}}, "330": {"name": "Amarterra Villas Bali Nusa Dua - MGallery Collection", "address": {"country": null, "street": null}}, "333": {"location": {"lat": -8.6866624, "lon": 115.1644302}, "name": "Uma Sapna", "address": {"country": null, "street": null}}, "332": {"location": {"lat": -8.6229777, "lon": 115.0904512}, "name": "Pan Pacific Nirwana Bali Resort", "address": {"country": null, "street": null}}, "60": {"location": {"lat": 2.0728096, "lon": 102.5613157}, "name": "The Taman Ayu", "address": {"country": "Indonesia", "street": "Jl. Petitenget, Kerobokan"}}, "61": {"name": "The Ahimsa Estate", "address": {"country": "Indonesia", "street": "Jl. Sari Dewi No. 1"}}, "258": {"location": {"lat": -8.772584, "lon": 115.1727816}, "name": "Jamahal Private Resort & SPA", "address": {"country": null, "street": null}}, "63": {"name": "U Paasha Seminyak", "address": {"country": "Indonesia", "street": "Jl. Laksmana No.77"}}, "64": {"name": "Taman Harum Cottages", "address": {"country": "Indonesia", "street": "Jalan Raya Mas"}}, "65": {"name": "Puri Wirata Dive Resort and Spa Amed", "address": {"country": "Indonesia", "street": "Jl. Raya Bunutan"}}, "179": {"name": "Alam Puri Art Museum & Resort", "address": {"country": "Indonesia", "street": "Penatih Village, Jln. Trenggana 108"}}, "178": {"location": {"lat": -8.7009418, "lon": 115.1658447}, "name": "Ramada Resort Camakila Bali", "address": {"country": null, "street": null}}, "252": {"location": {"lat": -8.6908357, "lon": 115.1641975}, "name": "L Hotel Seminyak", "address": {"country": null, "street": null}}, "69": {"location": {"lat": -8.805178, "lon": 115.2232767}, "name": "Amanusa", "address": {"country": "Indonesia", "street": "Jl Nusa Dua Selatan"}}, "175": {"name": "Peppers Seminyak", "address": {"country": null, "street": null}}, "174": {"location": {"lat": -8.5007591, "lon": 115.5275407}, "name": "Amankila", "address": {"country": "Indonesia", "street": "Manggis"}}, "173": {"name": "The Sungu Resort & Spa", "address": {"country": "Indonesia", "street": "Jalan Raya Penestanan ( Jl Campuhan 1) Ubud"}}, "172": {"name": "Matahari Tulamben Resort, Dive & SPA", "address": {"country": "Indonesia", "street": "Jl. Kubu-Abang"}}, "171": {"name": "Alindra Villa", "address": {"country": "Indonesia", "street": "Jl. Aneka Warga No. 12"}}, "170": {"name": "Puri Wulandari Boutique Resort", "address": {"country": "Indonesia", "street": "Jl. Raya Kedewatan"}}, "288": {"location": {"lat": -8.7332892, "lon": 115.1660191}, "name": "Ramada Bintang Bali Resort", "address": {"country": "Indonesia", "street": "Jalan Kartika Plaza, P.O. Box 1068, Bali 80361"}}, "249": {"location": {"lat": -8.6776361, "lon": 115.1536317}, "name": "The Kayana Bali", "address": {"country": null, "street": null}}, "253": {"name": "Kayumanis Ubud Private Villa & Spa", "address": {"country": "Indonesia", "street": "Sayan Village Ubud P.O. Box 777"}}, "248": {"name": "Pita Maha Resort and Spa", "address": {"country": "Indonesia", "street": "Jl. Raya Sanggingan"}}, "182": {"name": "Puri Sebali Resort", "address": {"country": null, "street": null}}, "195": {"name": "Seaside Suites Bali", "address": {"country": "Indonesia", "street": "Jl, Pantai Arjuna no. 18, Double Six, Legian Kaja"}}, "180": {"name": "Zen Resort Bali", "address": {"country": "Indonesia", "street": "PO Box 18, Ds. Ume Anyar"}}, "181": {"name": "Karma Jimbaran", "address": {"country": null, "street": null}}, "186": {"location": {"lat": 6.34866395, "lon": 2.39285886227315}, "name": "The Bene Hotel", "address": {"country": null, "street": null}}, "187": {"name": "The Royal Eighteen Resort and Spa", "address": {"country": "Indonesia", "street": "Jalan Singosari 18"}}, "184": {"name": "The Payogan Villa Resort & Spa", "address": {"country": "Indonesia", "street": "Jl. Cocoa 2, no. 77 Banjar, Bunutan, Desa Kedewatan, P.O. BOX 999"}}, "185": {"name": "18 Suite Villa Loft", "address": {"country": "Indonesia", "street": "Jl. Kartika Plaza Pudak Sari No. 18"}}, "220": {"location": {"lat": 51.89652075, "lon": -8.46333828518258}, "name": "The Elysian", "address": {"country": null, "street": null}}, "188": {"location": {"lat": 40.40164, "lon": 0.38123}, "name": "Natura Resort and Spa", "address": {"country": "Indonesia", "street": "Banjar Laplapan"}}, "189": {"name": "Mara River Safari Lodge", "address": {"country": "Indonesia", "street": "Jl. Prof Ida Bagus Mantra Km 19"}}, "311": {"location": {"lat": -8.7808786, "lon": 115.2252055}, "name": "Conrad Bali", "address": {"country": null, "street": null}}, "202": {"name": "Sun Boutique Hotel Managed by BENCOOLEN", "address": {"country": "Indonesia", "street": "Jalan Sunset no 23"}}, "196": {"name": "The Ulin Villas & Spa", "address": {"country": null, "street": null}}, "97": {"name": "Sense Hotel Seminyak", "address": {"country": "Indonesia", "street": "Jalan Kayu Jati No. 5"}}, "317": {"location": {"lat": -8.4939982, "lon": 115.2775511}, "name": "Viceroy Bali", "address": {"country": null, "street": null}}, "6": {"name": "Junjungan Ubud Hotel and Spa", "address": {"country": null, "street": null}}, "316": {"location": {"lat": -8.70958255, "lon": 115.16769454082}, "name": "Pullman Bali Legian Nirwana", "address": {"country": null, "street": null}}, "99": {"location": {"lat": 25.7576432, "lon": -108.9830106}, "name": "The Lovina", "address": {"country": null, "street": null}}, "98": {"name": "Hotel Horison Seminyak", "address": {"country": "Indonesia", "street": "Jl. Arjuna (Double Six)"}}, "168": {"location": {"lat": -8.7083565, "lon": 115.167191}, "name": "Legian Beach Hotel", "address": {"country": null, "street": null}}, "315": {"name": "RIMBA Jimbaran Bali by AYANA", "address": {"country": null, "street": null}}, "229": {"name": "Vasanti Seminyak Resort", "address": {"country": "Indonesia", "street": "Jalan Petitenget Gg. Cendrawasih no. 99DS"}}, "228": {"location": {"lat": -8.7891309, "lon": 115.1430332}, "name": "The Ritz-Carlton, Bali", "address": {"country": null, "street": null}}, "227": {"location": {"lat": -8.4793091, "lon": 116.0381771}, "name": "Sudamala Suites & Villas", "address": {"country": null, "street": null}}, "226": {"name": "Furama Villas & Spa Ubud", "address": {"country": "Indonesia", "street": "Jalan Raya Mambal"}}, "93": {"name": "Keraton Jimbaran Resort & Spa", "address": {"country": "Indonesia", "street": "Jalan Mrajapati"}}, "92": {"location": {"lat": -8.7160233, "lon": 115.1741874}, "name": "The Niche Bali", "address": {"country": "Indonesia", "street": "JL. 190"}}, "223": {"name": "Bali Ginger Suites", "address": {"country": null, "street": null}}, "222": {"name": "The Legian Bali \u2013 a GHM hotel", "address": {"country": null, "street": null}}, "221": {"name": "Grand Whiz Hotel Nusa Dua", "address": {"country": "Indonesia", "street": "Block T , Kawasan BTDC"}}, "163": {"location": {"lat": -8.6581322, "lon": 115.130226093112}, "name": "Hotel Tugu Bali", "address": {"country": "Indonesia", "street": "Jl Pantai Batu Bolong"}}, "11": {"location": {"lat": 5.9094814, "lon": 116.096415}, "name": "Villa Kayu Raja", "address": {"country": "Indonesia", "street": "Jalan Lebak Sari No: 18 Petitenget"}}, "10": {"name": "Pradha Villas", "address": {"country": null, "street": null}}, "13": {"name": "Ize Seminyak", "address": {"country": null, "street": null}}, "12": {"location": {"lat": -8.4616192, "lon": 115.2405022}, "name": "Alila Ubud", "address": {"country": "Indonesia", "street": "Desa Melinggih Kelod"}}, "15": {"name": "Astagina Resort", "address": {"country": null, "street": null}}, "14": {"name": "Plataran Ubud Hotel & Spa", "address": {"country": "Indonesia", "street": "Jl. Hanoman, Pengosekan"}}, "66": {"name": "Puri Saron Seminyak", "address": {"country": "Indonesia", "street": "Jl. Camplung Tanduk"}}, "114": {"name": "100 Sunset 2 Hotel", "address": {"country": "Indonesia", "street": "Jl. Sunset Road No.100 C"}}, "19": {"name": "Ion Bali Benoa Hotel", "address": {"country": null, "street": null}}, "18": {"location": {"lat": -8.7937655, "lon": 115.230306267951}, "name": "Bali Nusa Dua Hotel", "address": {"country": "Indonesia", "street": "Kawasan Pariwisata Nusa Dua Lot NW/1"}}, "155": {"name": "Sun Island Hotel Legian", "address": {"country": "Indonesia", "street": "Jl. Legian 123"}}, "314": {"name": "The Kunja Villas & Spa", "address": {"country": "Indonesia", "street": "Jalan Lebak Sari 8 Petitenget"}}, "272": {"name": "Sol Beach House Benoa Bali by Melia Hotel International", "address": {"country": null, "street": null}}, "250": {"name": "The Magani Hotel and Spa", "address": {"country": "Indonesia", "street": "Jl. Melasti, Legian Kelod"}}, "273": {"location": {"lat": -8.8172176, "lon": 115.0925586}, "name": "Alila Villas Uluwatu", "address": {"country": "Indonesia", "street": "Jl Belimbing Sari Banjar Tambiyak Desa Pecatu"}}, "274": {"name": "Ramada Encore Bali Seminyak", "address": {"country": "Indonesia", "street": "Jl. Dewi Saraswati III"}}, "204": {"name": "Kenanga Boutique Hotel", "address": {"country": "Indonesia", "street": "Jalan Raya Lungsiakan"}}, "17": {"location": {"lat": 54.1617469, "lon": 15.486014}, "name": "Aqua Villa", "address": {"country": "Indonesia", "street": "Jalan Klecung No. 38x, Banjar Umalas"}}, "78": {"location": {"lat": 28.8691687, "lon": -13.8219678}, "name": "Sun Royal Hotel", "address": {"country": "Indonesia", "street": "Jl. Sunset Road No.6"}}, "275": {"location": {"lat": -8.491387, "lon": 115.2469781}, "name": "The Villas Bali Hotel & Spa", "address": {"country": null, "street": null}}, "151": {"name": "Rijasa Agung - Bali Ubud Luxury Hotel Resort Villa", "address": {"country": "Indonesia", "street": "Banjar Begawan"}}, "150": {"name": "Disini Luxury Spa Villas", "address": {"country": "Indonesia", "street": "Mertasari 28"}}, "153": {"name": "Maharani Beach Hotel", "address": {"country": "Indonesia", "street": "Jalan Pantai Kuta, Corner Poppies 1"}}, "152": {"name": "Puri Sunia Resort", "address": {"country": null, "street": null}}, "116": {"name": "BEST WESTERN PREMIER Sunset Road Kuta", "address": {"country": "Indonesia", "street": "Jl. Sunset Road No 9, Seminyak-Kuta"}}, "276": {"name": "Tanadewa Luxury Villas & Spa", "address": {"country": null, "street": null}}, "157": {"name": "Belmond Jimbaran Puri", "address": {"country": null, "street": null}}, "156": {"name": "Komune Resort, Keramas Beach Bali", "address": {"country": null, "street": null}}, "159": {"name": "HARRIS Resort Kuta Beach", "address": {"country": null, "street": null}}, "158": {"name": "Villa Karisa", "address": {"country": "Indonesia", "street": "Drupadi Street no. 100X"}}, "62": {"location": {"lat": 48.386565, "lon": 2.9035474}, "name": "Le Grande Bali", "address": {"country": "Indonesia", "street": "Block 5 - Pecatu Indah Resort"}}, "277": {"name": "Kuta Central Park Hotel", "address": {"country": "Indonesia", "street": "Jalan Patih Jelantik"}}, "36": {"location": {"lat": -8.4867148, "lon": 115.2842588}, "name": "Tanah Merah Resort & Gallery", "address": {"country": "Indonesia", "street": "Jl. Melayang"}}, "278": {"location": {"lat": -8.78126125, "lon": 115.165661689644}, "name": "Le Meridien Bali Jimbaran", "address": {"country": null, "street": null}}, "90": {"name": "Grand Balisani Suites", "address": {"country": "Indonesia", "street": "Jalan Batubelig Beach"}}, "238": {"name": "The Chedi Club Tanah Gajah, Ubud, Bali \u2013 a GHM hotel", "address": {"country": null, "street": null}}, "239": {"name": "Villa Seminyak Estate & Spa", "address": {"country": "Indonesia", "street": "Jl. Baik Baik"}}, "279": {"name": "KajaNe Mua Private Villa & Mansion", "address": {"country": "Indonesia", "street": "Monkey Forest Road"}}, "234": {"location": {"lat": -8.89046125, "lon": 116.27719372783}, "name": "Kuta Angel Hotel", "address": {"country": "Indonesia", "street": "Jl. Pantai Kuta no. 33, Br. Pande Mas"}}, "235": {"name": "Maca Villas & Spa", "address": {"country": null, "street": null}}, "16": {"location": {"lat": 45.3969724, "lon": 8.5398008}, "name": "I-Villa", "address": {"country": null, "street": null}}, "237": {"name": "Ossotel", "address": {"country": null, "street": null}}, "230": {"location": {"lat": -8.5185229, "lon": 115.2636592}, "name": "Alaya Resort Ubud", "address": {"country": "Indonesia", "street": "Jl. Hanoman"}}, "231": {"location": {"lat": 42.5610325, "lon": -70.97909475}, "name": "Blue Karma Hotel", "address": {"country": null, "street": null}}, "232": {"name": "BEST WESTERN Kuta Beach", "address": {"country": "Indonesia", "street": "Jalan Benesari, Pantai Kuta"}}, "233": {"name": "Dusun Villas Bali", "address": {"country": null, "street": null}}, "224": {"location": {"lat": -8.491387, "lon": 115.2469781}, "name": "Bali Island Villas & Spa", "address": {"country": "Indonesia", "street": "Jl. Raya Petitenget No 469"}}, "280": {"name": "Samabe Bali Suites & Villas", "address": {"country": null, "street": null}}, "183": {"name": "Harris Hotel Seminyak", "address": {"country": null, "street": null}}, "49": {"name": "The Griya Villas and Spa", "address": {"country": "Indonesia", "street": "Jl. Bunutan"}}, "46": {"location": {"lat": -8.6835625, "lon": 115.1570803}, "name": "Royal Seminyak: Royal Bali Beach Club", "address": {"country": "Indonesia", "street": "Jl. Kayu aya no.100, Seminyak Square"}}, "86": {"name": "Kayumanis Jimbaran Private Estate & Spa", "address": {"country": "Indonesia", "street": "Jalan Yoga Perkanti"}}, "44": {"location": {"lat": -8.4507033, "lon": 115.2353505}, "name": "COMO Shambhala Estate", "address": {"country": null, "street": null}}, "45": {"location": {"lat": 63.843329, "lon": 23.1303631}, "name": "The Grand Sunti", "address": {"country": "Indonesia", "street": "Pengosekan Street"}}, "42": {"location": {"lat": 33.49885055, "lon": -117.151667640973}, "name": "Mahogany Hotel", "address": {"country": "Indonesia", "street": "Jalan Taman Bali No. 1, By Pass Ngurah Rai, Mumbul"}}, "43": {"name": "The Villas at AYANA Resort", "address": {"country": "Indonesia", "street": "Jalan Karang Mas Sejahtera"}}, "40": {"name": "La Joya, Villa & Bungalows", "address": {"country": "Indonesia", "street": "Balangan Beach"}}, "87": {"location": {"lat": -8.5022511, "lon": 115.2521587}, "name": "Agung Raka Resort & Villas", "address": {"country": "Indonesia", "street": "Jl. Pengosekan"}}, "322": {"location": {"lat": -8.7237498, "lon": 115.1711952}, "name": "Kuta Paradiso Hotel", "address": {"country": "Indonesia", "street": "Jl. Kartika Plaza"}}, "323": {"name": "Maya Ubud Resort & Spa", "address": {"country": "Indonesia", "street": "Jl. Gunung Sari"}}, "320": {"name": "Komaneka at Rasa Sayang", "address": {"country": "Indonesia", "street": "Jl Monkey Forest"}}, "321": {"location": {"lat": -8.732632, "lon": 115.1676607}, "name": "Discovery Kartika Plaza Hotel", "address": {"country": "Indonesia", "street": "Jl. Kartika Plaza"}}, "5": {"location": {"lat": 7.0657972, "lon": 125.6832793}, "name": "Bali Garden Beach Resort", "address": {"country": "Indonesia", "street": "Jalan Dewi Sartika, P.O.Box 1062"}}, "327": {"name": "Nusa Dua Beach Hotel & Spa", "address": {"country": null, "street": null}}, "324": {"location": {"lat": 29.22638, "lon": 80.04776}, "name": "Amori Villas", "address": {"country": null, "street": null}}, "325": {"name": "Kayumanis Nusa Dua Private Villa & Spa", "address": {"country": "Indonesia", "street": "BTDC Area"}}, "9": {"name": "The Edelweiss Boutique Hotel Kuta", "address": {"country": "Indonesia", "street": "Jl. Kartika Plaza no. 108"}}, "328": {"location": {"lat": -8.79928435, "lon": 115.232674114859}, "name": "Melia Bali Indonesia", "address": {"country": null, "street": null}}, "329": {"name": "The Kuta Beach Heritage Hotel Bali - Managed by Accor", "address": {"country": null, "street": null}}, "146": {"name": "kaMAYA Resort and Villas", "address": {"country": null, "street": null}}, "147": {"name": "Pelangi Bali Hotel", "address": {"country": "Indonesia", "street": "Jalan Camplung Tanduk"}}, "203": {"location": {"lat": -8.6900334, "lon": 115.2651812}, "name": "Griya Santrian", "address": {"country": "Indonesia", "street": "Danau Tamblingan 47"}}, "145": {"location": {"lat": -8.703338, "lon": 115.1688432}, "name": "The 101 Legian", "address": {"country": "Indonesia", "street": "117 Jl. Raya Legian"}}, "142": {"name": "Alam KulKul Boutique Resort", "address": {"country": "Indonesia", "street": "Jalan Pantai Kuta"}}, "143": {"location": {"lat": 41.6916289, "lon": 23.1666339}, "name": "Villa Kresna", "address": {"country": "Indonesia", "street": "Jalan Sarinande 19"}}, "140": {"name": "Candi Beach Cottage", "address": {"country": null, "street": null}}, "141": {"name": "Maya Loka Villas", "address": {"country": null, "street": null}}, "209": {"location": {"lat": -8.1063735, "lon": 115.1303372}, "name": "The Jineng Villas", "address": {"country": null, "street": null}}, "208": {"name": "Double-Six Luxury Hotel Seminyak", "address": {"country": "Indonesia", "street": "No. 66, Double Six Beach"}}, "148": {"name": "Harper Kuta", "address": {"country": "Indonesia", "street": "Jl. Legian No. 73"}}, "149": {"location": {"lat": -8.7219422, "lon": 115.1847735}, "name": "Ibis Bali Kuta", "address": {"country": null, "street": null}}, "77": {"name": "Solaris Hotel Kuta", "address": {"country": "Indonesia", "street": "Jalan Jenggala (ex. Wana Segara)"}}, "76": {"location": {"lat": -8.7175576, "lon": 115.1845735}, "name": "The Sunset Bali Hotel", "address": {"country": "Indonesia", "street": "Jl. Dewi Sri no. 11a"}}, "75": {"name": "Grand Ixora Kuta Resort", "address": {"country": "Indonesia", "street": "Jalan Kartika Plaza No. 92"}}, "74": {"name": "Golden Tulip Devins Hotel Seminyak", "address": {"country": "Indonesia", "street": "Jl. Petitenget, Komplex Villa Kendal No.35"}}, "73": {"name": "Shunyata Villas Bali", "address": {"country": null, "street": null}}, "72": {"name": "Swiss-Belinn Seminyak", "address": {"country": "Indonesia", "street": "Jl. Sunset Road No. 88 S"}}, "71": {"location": {"lat": -7.5314066, "lon": 112.556108}, "name": "Villa Awang Awang", "address": {"country": null, "street": null}}, "70": {"name": "Semara Luxury Villa Resort", "address": {"country": "Indonesia", "street": "Jl Pantai Selatan Gau"}}, "154": {"location": {"lat": -8.7219422, "lon": 115.1847735}, "name": "Ibis Styles Bali Kuta Circle", "address": {"country": "Indonesia", "street": "Jalan Bypass Ngurah Rai"}}, "1": {"location": {"lat": -8.7957821, "lon": 115.230630555362}, "name": "The Westin Resort Nusa Dua", "address": {"country": null, "street": null}}, "96": {"location": {"lat": 32.252478, "lon": 77.1823018}, "name": "The Tusita Hotel", "address": {"country": "Indonesia", "street": "Jalan Kartika Plaza 9x"}}, "79": {"name": "Indiana Kenanga Villas", "address": {"country": null, "street": null}}, "205": {"location": {"lat": -8.7949481, "lon": 115.2167529}, "name": "Mercure Bali Nusa Dua", "address": {"country": null, "street": null}}, "2": {"location": {"lat": -8.6868124, "lon": 115.1553708}, "name": "The Oberoi Bali", "address": {"country": null, "street": null}}, "161": {"location": {"lat": -8.4998958, "lon": 115.5376898}, "name": "Alila Manggis", "address": {"country": "Indonesia", "street": "Buitan"}}, "144": {"name": "Poinciana Oceanside Resort & Retreat Centre", "address": {"country": "Indonesia", "street": "Jl. Singaraja Raya - Amplapura"}}, "48": {"location": {"lat": -32.74885, "lon": 137.63314}, "name": "Sunset Hill", "address": {"country": "Indonesia", "street": "Jalan Bangkiang Sidem 88 Keliki"}}, "262": {"location": {"lat": -8.7208875, "lon": 115.1698011}, "name": "Mercure Kuta Bali", "address": {"country": null, "street": null}}, "126": {"name": "Fivelements Puri Ahimsa", "address": {"country": null, "street": null}}, "261": {"location": {"lat": 37.3501407, "lon": -2.6686269}, "name": "Villa Semana", "address": {"country": null, "street": null}}, "270": {"name": "Prama Sanur Beach Bali", "address": {"country": "Indonesia", "street": "Jl. Danau Tamblingan P.O. Box 3279"}}, "41": {"location": {"lat": 3.201186, "lon": 101.671033}, "name": "Segara Village Hotel", "address": {"country": "Indonesia", "street": "Jl. Segara Ayu"}}, "260": {"name": "Swiss-Belhotel Rainforest", "address": {"country": "Indonesia", "street": "Jl. Sunset Road No.101"}}, "47": {"name": "Kupu Kupu Jimbaran & Bamboo Spa by L'Occitane", "address": {"country": null, "street": null}}, "267": {"name": "The Royal Pita Maha", "address": {"country": "Indonesia", "street": "Desa Kedewatan"}}, "326": {"name": "Amadea Resort & Villas", "address": {"country": "Indonesia", "street": "Jalan Laksmana 55"}}, "67": {"name": "Nirwana Resort and Spa", "address": {"country": null, "street": null}}, "266": {"name": "The Ubud Village Resort & Spa", "address": {"country": "Indonesia", "street": "Jl. Raya Pengosekan"}}}}