{"344": {"name": "Sandalwood Hotel & Retreat", "address": {"country": "India", "street": "Vainguinim Beach", "postal_code": "403004", "locality": "Dona Paula"}}, "0": {"location": {"lat": 39.5411768, "lon": 2.593458}, "name": "Hotel Bonanza", "address": {"country": "India", "street": "Khobra Vaddo", "postal_code": "403516", "locality": "Baga"}}, "346": {"name": "The Rivasa Resort", "address": {"country": "India", "street": "Calangute-Baga Junction, Dr. Afonso Road", "postal_code": "403516", "locality": "Calangute"}}, "347": {"name": "Resorte Marinha Dourada", "address": {"country": "India", "street": "Tambudki", "postal_code": "403518", "locality": "Arpora"}}, "340": {"name": "Nagoa Grande Hotel", "address": {"country": "India", "street": "No - 18/1, Nagoa Arpora", "postal_code": "403516", "locality": null}}, "341": {"name": "Renzo's Inn", "address": {"country": "India", "street": "E/139, Adventure Street, Opp Kamath Holiday Home", "postal_code": "403516", "locality": "Calangute"}}, "342": {"location": {"lat": 15.5052185, "lon": 73.7683432}, "name": "Marquis Beach Resort", "address": {"country": "India", "street": "Dando Sinquerim Beach", "postal_code": "403515", "locality": "Candolim"}}, "343": {"location": {"lat": 15.5460146, "lon": 73.763253}, "name": "10 Calangute", "address": {"country": "India", "street": "Shree Nichaldas Arcade", "postal_code": "403516", "locality": "Calangute"}}, "348": {"name": "Royal Orchid Beach Resort & Spa, Goa", "address": {"country": "India", "street": "Next to Park Hyatt in the North & Alia Diwa in the South", "postal_code": "403 713", "locality": "Utorda"}}, "349": {"location": {"lat": -27.4526691, "lon": 153.037931700565}, "name": "The HQ", "address": {"country": "India", "street": "Swatantra Path", "postal_code": "403802", "locality": "Vasco da Gama"}}, "298": {"location": {"lat": 43.26490855, "lon": -5.72809530412553}, "name": "Casa Tres Amigos", "address": {"country": "India", "street": "Socol Vaddo", "postal_code": "403507", "locality": "Assagao"}}, "299": {"name": "La Sunila Clarks Inn Suites", "address": {"country": "India", "street": "Dr. Constancio Maschrans, River View", "postal_code": "403518", "locality": "Arpora"}}, "296": {"name": "WelcomHeritage Panjim Inn", "address": {"country": "India", "street": "E-212, 31st January Road, Fontainhas", "postal_code": "403001", "locality": "Panaji"}}, "297": {"name": "The Sea Horse Resort", "address": {"country": "India", "street": "Plot no 28, Dr Constancio Mascarenhas River View", "postal_code": "403518", "locality": "Baga"}}, "294": {"location": {"lat": 15.2457671, "lon": 73.9297444}, "name": "Joecons Beach Resort", "address": {"country": "India", "street": "1795, Calwaddo", "postal_code": "403716", "locality": "Benaulim"}}, "295": {"name": "Angels Resort", "address": {"country": "India", "street": "Chogm Road", "postal_code": "403521", "locality": null}}, "292": {"name": "Nazri Resort Hotel", "address": {"country": "India", "street": "Saunta Vaddo", "postal_code": "GA 403516", "locality": "Baga"}}, "293": {"location": {"lat": -18.8947172, "lon": 48.1419176}, "name": "Mira Hotel", "address": {"country": "India", "street": "Umta Vaddo", "postal_code": "403516", "locality": "Calangute"}}, "290": {"name": "The Crown Goa", "address": {"country": "India", "street": "Bairo Alto Dos Pilotos", "postal_code": "403001", "locality": "Panaji"}}, "291": {"location": {"lat": 15.5352972, "lon": 73.7616618}, "name": "Casa Severina", "address": {"country": "India", "street": "Senhor Francisco Road, near St. Anthony's Chapel", "postal_code": "403516", "locality": "Calangute"}}, "199": {"name": "Verca le Palms Beach Resort", "address": {"country": "India", "street": "Teen Murti", "postal_code": "403721", "locality": null}}, "198": {"location": {"lat": -30.2865416, "lon": 153.1388158}, "name": "Sapphire Comfort Hotel", "address": {"country": "India", "street": "Margao-Panaji Highway", "postal_code": "403601", "locality": "Margao"}}, "195": {"location": {"lat": 45.4663201, "lon": 9.1587332}, "name": "Hotel La Capitol", "address": {"country": "India", "street": "MG Road", "postal_code": "403001", "locality": "Panaji"}}, "194": {"name": "Lloyd's Tourist Rooms", "address": {"country": "India", "street": "1554 /A, Vasvaddo Bandar, Benaulim", "postal_code": null, "locality": null}}, "197": {"location": {"lat": 34.0777908, "lon": -117.2414299}, "name": "Marigold", "address": {"country": "India", "street": "Near Old Patto Bridge", "postal_code": "403001", "locality": "Panaji"}}, "196": {"location": {"lat": 12.0842782, "lon": -68.897607}, "name": "Royal Resort", "address": {"country": "India", "street": "Rajbag Beach Tarir", "postal_code": "403 702", "locality": null}}, "191": {"name": "Hotel Aroma Executive", "address": {"country": "India", "street": "Rua Cunha Rivara Road", "postal_code": "403001", "locality": "Panaji"}}, "190": {"name": "Angelina Beach Resort", "address": {"country": "India", "street": "Near Titos Night Club, Saunta Vaddo", "postal_code": "403516", "locality": "Calangute"}}, "193": {"name": "Yab Yum Resort", "address": {"country": "India", "street": "Ashvem Beach", "postal_code": "403 527", "locality": "Mandrem"}}, "192": {"location": {"lat": 41.9473826, "lon": -87.6442628}, "name": "Majestic Inn", "address": {"country": "India", "street": "Cobra Vaddo", "postal_code": "403516", "locality": "Calangute"}}, "270": {"name": "Casa Vagator", "address": {"country": "India", "street": "House No. 594/4, Vozran", "postal_code": "403509", "locality": "Vagator"}}, "271": {"location": {"lat": 37.5183595, "lon": 126.8705824}, "name": "The Banyan Soul", "address": {"country": "India", "street": "No. 962(1) Behind German Bakery", "postal_code": "403509", "locality": "Anjuna"}}, "272": {"location": {"lat": 14.9976142, "lon": 74.0395844}, "name": "The Tubki Resort", "address": {"country": "India", "street": "Patnem-Palolem Beach Road", "postal_code": "403702", "locality": "Palolem"}}, "273": {"location": {"lat": 15.3119651, "lon": 73.9038853}, "name": "Majorda Beach Resort", "address": {"country": "India", "street": "Majorda Village, Salcette", "postal_code": "403713", "locality": "Majorda"}}, "274": {"location": {"lat": 15.5029182, "lon": 73.7710815}, "name": "Lui Beach Resort", "address": {"country": "India", "street": "Dando Candolim", "postal_code": "403515", "locality": "Candolim"}}, "275": {"name": "Afonso Guest House", "address": {"country": "India", "street": "Near Saint Sebastian Chapel", "postal_code": "403001", "locality": "Panaji"}}, "276": {"name": "Hotel Laguna Anjuna", "address": {"country": "India", "street": "Sorantto Vado", "postal_code": "403509", "locality": "Anjuna"}}, "277": {"name": "360 Degree Beach Retreat", "address": {"country": "India", "street": "Candolim Beach", "postal_code": null, "locality": "Candolim"}}, "278": {"location": {"lat": 15.588882, "lon": 73.7646537}, "name": "The Tamarind Hotel", "address": {"country": "India", "street": "1286, Kumar Vaddo", "postal_code": "403509", "locality": "Anjuna"}}, "279": {"name": "Goa - Villagio, A Sterling Holidays Resort", "address": {"country": "India", "street": "Thondwaddo", "postal_code": "403713", "locality": "Betalbatim"}}, "108": {"location": {"lat": -22.912701, "lon": -43.1908308}, "name": "O Camarao Hotel", "address": {"country": "India", "street": "Umtavaddo", "postal_code": "403516", "locality": "Calangute"}}, "109": {"location": {"lat": 9.921546, "lon": 78.1123813}, "name": "Hotel Supreme", "address": {"country": "India", "street": "Opp. Damodar Temple", "postal_code": "403802", "locality": "Vasco da Gama"}}, "102": {"name": "Palm Groove Guest House", "address": {"country": "India", "street": "Main Vagator Beach Road, Deulvado", "postal_code": "403509", "locality": "Vagator"}}, "103": {"location": {"lat": 24.87232665, "lon": 67.0655185478516}, "name": "Hill Top Hotel", "address": {"country": "India", "street": "Near St Anthony's Church", "postal_code": "403509", "locality": "Anjuna"}}, "100": {"location": {"lat": 41.0874246, "lon": 16.80248}, "name": "Casa Paradiso", "address": {"country": "India", "street": "Ghanekar Building Jose Falcao Road", "postal_code": "403001", "locality": "Panaji"}}, "101": {"location": {"lat": 15.2675912, "lon": 73.9167069}, "name": "Marvista Beach House", "address": {"country": "India", "street": "Sernabatim Beach", "postal_code": "403708", "locality": "Sernabatim"}}, "106": {"location": {"lat": 40.5908114, "lon": 23.7858023}, "name": "Hotel Germany", "address": {"country": "India", "street": "Umta Vaddo, Beach Street", "postal_code": "403516", "locality": "Calangute"}}, "107": {"location": {"lat": 65.034288, "lon": 35.6975299}, "name": "Branco Guest House", "address": {"country": "India", "street": "Tamdi Mati", "postal_code": "403001", "locality": "Panaji"}}, "104": {"name": "Bollywood Sea Queen Beach Resort", "address": {"country": "India", "street": "Colva Beach", "postal_code": "403708", "locality": null}}, "105": {"name": "Hafh Resort", "address": {"country": "India", "street": "Mainat Bhatti", "postal_code": "403518", "locality": "Arpora"}}, "39": {"name": "Aguada Hermitage", "address": {"country": "India", "street": "Sinquerim Beach", "postal_code": "403 519", "locality": "Sinquerim"}}, "38": {"name": "Gaffino's Beach Resort", "address": {"country": "India", "street": "Mobor Beach", "postal_code": "403731", "locality": "Cavelossim"}}, "33": {"location": {"lat": 28.4906717, "lon": 76.9873507103009}, "name": "Rio Residency", "address": {"country": "India", "street": "Tambudki", "postal_code": "403518", "locality": "Arpora"}}, "32": {"name": "Manfredi's Resort", "address": {"country": "India", "street": "Pololem Beach", "postal_code": null, "locality": "Palolem"}}, "31": {"name": "Saikunj Holiday Homes", "address": {"country": "India", "street": "H no 687C, Pintos Wado Highland Beach Resort Road", "postal_code": "403515", "locality": "Candolim"}}, "30": {"location": {"lat": 27.2573632, "lon": 33.8276511071543}, "name": "Cleopatra Resort", "address": {"country": "India", "street": "Palolem Beach Road", "postal_code": "403702", "locality": "Palolem"}}, "37": {"location": {"lat": 48.2186629, "lon": 16.3312759}, "name": "Simon's Cottage", "address": {"country": "India", "street": null, "postal_code": null, "locality": "Benaulim"}}, "36": {"location": {"lat": -27.3556329, "lon": 152.9764658}, "name": "The Karma Plaza Hotel", "address": {"country": "India", "street": "Rajendra Prasad Avenue", "postal_code": "403802", "locality": "Vasco da Gama"}}, "35": {"name": "Crystal Beach Resort By Cambay", "address": {"country": "India", "street": "Holiday street, Kerkar art gallery lane, Near little italy rest Gauravado", "postal_code": null, "locality": "Calangute"}}, "34": {"name": "Mayem Residency", "address": {"country": "India", "street": "Mayem Lake View", "postal_code": null, "locality": "Ponda"}}, "339": {"name": "Acacia Palms Resort", "address": {"country": "India", "street": "Facing the Beach, 4th ward, Colva, Salcete, Goa", "postal_code": "403708", "locality": "Colva"}}, "338": {"name": "Spazio Leisure Resort", "address": {"country": "India", "street": "Near Starco Junction", "postal_code": "403509", "locality": "Anjuna"}}, "335": {"name": "Fortune Select Regina", "address": {"country": "India", "street": "Off Fort Aguada Road, Candolim", "postal_code": "403515", "locality": "Candolim"}}, "334": {"name": "juSTa Panjim, Goa", "address": {"country": "India", "street": "Off Marine Drive", "postal_code": "403002 ", "locality": "Panaji"}}, "337": {"name": "Silver Sands Sunshine - Angaara", "address": {"country": "India", "street": "Murod Vaddo, Candolim Goa", "postal_code": "403515", "locality": "Candolim"}}, "336": {"name": "Bogmallo Beach Resort", "address": {"country": "India", "street": "P. O. Box Bogmalo", "postal_code": "403806", "locality": "Bogmalo"}}, "331": {"name": "Sea Mist Resort", "address": {"country": "India", "street": "Vaddy", "postal_code": "403515", "locality": "Candolim"}}, "330": {"location": {"lat": 15.6711262, "lon": 73.7095314}, "name": "Riva Beach Resort", "address": {"country": "India", "street": "Junas Wado,Mandrem", "postal_code": "403527", "locality": "Mandrem"}}, "333": {"name": "The Acacia Hotel & Spa Goa", "address": {"country": "India", "street": "H. No. 586/A, Sequeira Vaddo", "postal_code": "403515", "locality": "Candolim"}}, "332": {"location": {"lat": 15.5967605, "lon": 73.7388928}, "name": "Leoney Resort", "address": {"country": "India", "street": "Ozran Beach Road Anjuna Anjuna", "postal_code": "403509", "locality": "Vagator"}}, "345": {"name": "Cavala Seaside Resort", "address": {"country": "India", "street": "Saunta Vaddo", "postal_code": "403516", "locality": "Baga"}}, "6": {"name": "Carina Beach Resort", "address": {"country": "India", "street": "Vasvaddo", "postal_code": "403716", "locality": "Benaulim"}}, "99": {"location": {"lat": 42.3983396, "lon": 20.6523398297498}, "name": "Hotel Park Plaza", "address": {"country": "India", "street": "Opp Azad Maidan", "postal_code": "403 001", "locality": "Panaji"}}, "98": {"location": {"lat": 42.0948526, "lon": 2.0997809}, "name": "Casa De Baga", "address": {"country": "India", "street": "Calangute Baga Road, Khobrwaddo, Bardez Goa", "postal_code": "403516", "locality": "Calangute"}}, "91": {"name": "Alcon Holiday Village", "address": {"country": "India", "street": "Vaddy", "postal_code": null, "locality": "Candolim"}}, "90": {"location": {"lat": 15.4144558, "lon": 73.9871632}, "name": "Panaji Residency", "address": {"country": "India", "street": null, "postal_code": "403001", "locality": "Panaji"}}, "93": {"location": {"lat": 15.50011, "lon": 73.8293449}, "name": "Hotel Mandovi", "address": {"country": "India", "street": "D.B Marg", "postal_code": "403001", "locality": "Panaji"}}, "92": {"location": {"lat": 38.8757348, "lon": -122.7286005}, "name": "Maria Rosa Resort", "address": {"country": "India", "street": "Near St. Alex Church, Naika Vaddo", "postal_code": "403 516", "locality": null}}, "95": {"name": "Titos My Hotel", "address": {"country": "India", "street": "Fatta Waddo, Nerul", "postal_code": null, "locality": "Calangute"}}, "94": {"location": {"lat": 15.2446531, "lon": 73.9251932}, "name": "Grand Goa Exotica", "address": {"country": "India", "street": "Survey No: 170/88, Arradi, Guirin, P.O Master Near Mt.Guirin High School", "postal_code": "403507", "locality": null}}, "97": {"name": "Alagoa Resort", "address": {"country": "India", "street": "No 82-B Ranvaddo Betalbatim", "postal_code": "403713", "locality": "Betalbatim"}}, "96": {"name": "Royal Palace Beach Resort", "address": {"country": "India", "street": "Holiday Street, Gaurawaddo", "postal_code": "403516", "locality": "Calangute"}}, "238": {"location": {"lat": 14.913786, "lon": 120.7545375}, "name": "La Grace Resort", "address": {"country": "India", "street": "Vaswaddo", "postal_code": "403716", "locality": "Benaulim"}}, "239": {"name": "A's Holiday Beach Resort", "address": {"country": "India", "street": "Sunset Beach", "postal_code": "403001", "locality": "Betalbatim"}}, "234": {"name": "Sea Shore Beach Resort", "address": {"country": "India", "street": "Umtavaddo", "postal_code": "403516", "locality": "Calangute"}}, "235": {"location": {"lat": 15.5453792, "lon": 73.7564642}, "name": "Old Goa Residency", "address": {"country": "India", "street": "Old Goa,", "postal_code": "403001", "locality": "Ponda"}}, "236": {"location": {"lat": 15.5230458, "lon": 73.7670473}, "name": "Godwin Hotel", "address": {"country": "India", "street": "Candolim-Calangute Road", "postal_code": "403515", "locality": "Candolim"}}, "237": {"name": "Casa Colvale", "address": {"country": "India", "street": "Taliwado, Chiklim", "postal_code": "403513", "locality": null}}, "230": {"name": "Dreamcatcher Resort", "address": {"country": "India", "street": "Far North Palolem Beach", "postal_code": "403702", "locality": "Palolem"}}, "231": {"location": {"lat": 12.1675974, "lon": -68.2869999733785}, "name": "Sunset Beach Hotel", "address": {"country": "India", "street": "Fort Aguada Road,", "postal_code": "403515", "locality": "Candolim"}}, "232": {"location": {"lat": 60.1678773, "lon": 24.9285929231472}, "name": "Maharaja Hotels", "address": {"country": "India", "street": "200 Rua Leopold Flores (Road)", "postal_code": "403802", "locality": "Vasco da Gama"}}, "233": {"location": {"lat": 52.2568996, "lon": 5.4672992}, "name": "Sur La Mer", "address": {"country": "India", "street": "New Wada", "postal_code": "403512", "locality": "Morjim"}}, "1": {"location": {"lat": 23.2359005, "lon": -106.439973}, "name": "Amigo Plaza", "address": {"country": "India", "street": "4th Ward,Colva Beach", "postal_code": "403708", "locality": null}}, "146": {"location": {"lat": 15.5456284, "lon": 73.7613356}, "name": "Hotel Manvin's", "address": {"country": "India", "street": "Municipal Gardens", "postal_code": "403001", "locality": "Panaji"}}, "147": {"location": {"lat": 51.51073245, "lon": -0.0765473045324569}, "name": "Hotel Blessings", "address": {"country": "India", "street": "M. G. Road, Lane II, Behind Niyaaz Restaurant, Next to Lokmat Newspaper", "postal_code": "403001", "locality": "Panaji"}}, "144": {"location": {"lat": 15.5910323, "lon": 73.810367}, "name": "Hotel Satyaheera", "address": {"country": "India", "street": "Near Hanuman Temple", "postal_code": "403507", "locality": "Mapusa"}}, "145": {"location": {"lat": 39.324188, "lon": -75.3213999}, "name": "Sea Breeze Beach Hotel", "address": {"country": "India", "street": "Tivai Vaddo", "postal_code": "406516", "locality": "Calangute"}}, "142": {"location": {"lat": 15.0370557, "lon": 73.9895907}, "name": "Dunhill Beach Resort", "address": {"country": "India", "street": "Agonda Beach Road", "postal_code": "403702", "locality": "Agonda"}}, "143": {"name": "Amarya Shamiyana", "address": {"country": "India", "street": "Asvem Beach", "postal_code": "403527", "locality": "Mandrem"}}, "140": {"name": "Willows Elite Resort", "address": {"country": "India", "street": "Bairo alto, Anjuna", "postal_code": "403507", "locality": null}}, "141": {"name": "Preetham Cottages", "address": {"country": "India", "street": "Pololem Beach", "postal_code": "403516", "locality": "Palolem"}}, "148": {"name": "Hawaii The Sea-Side Village Retreat", "address": {"country": "India", "street": "Hawaii Beach, Behind Police Outpost/Cid Office", "postal_code": "403004", "locality": "Dona Paula"}}, "149": {"location": {"lat": 43.6652656, "lon": -79.4741467}, "name": "Lotus Inn", "address": {"country": "India", "street": "Zor Vaddo", "postal_code": "403509", "locality": "Anjuna"}}, "133": {"name": "Shangrila Beach Hotel, Goa", "address": {"country": "India", "street": "Majorda Beach", "postal_code": "403713", "locality": "Majorda"}}, "132": {"location": {"lat": 51.4002361, "lon": 0.795847855575487}, "name": "Sea View Cottages", "address": {"country": "India", "street": "Behind Titos Disco", "postal_code": "403516", "locality": "Baga"}}, "131": {"name": "Delta Residency", "address": {"country": "India", "street": "151/20, Gauro Vaddo, Near St. Anthony_s Chapel,", "postal_code": "403516", "locality": "Calangute"}}, "130": {"name": "Abalone Resort", "address": {"country": "India", "street": "Gorbhat", "postal_code": "403 518", "locality": "Arpora"}}, "137": {"location": {"lat": 10.7275001, "lon": 106.7066161}, "name": "Lucky Star Hotel", "address": {"country": "India", "street": "3rd Ward Beach Road", "postal_code": "403708", "locality": "Colva"}}, "136": {"location": {"lat": 15.5400019, "lon": 73.7642574}, "name": "Nizmar Resort", "address": {"country": "India", "street": "Naika Vaddo Calangute", "postal_code": "403516", "locality": "Calangute"}}, "135": {"location": {"lat": 15.238719, "lon": 73.9297140774651}, "name": "The RETREAT by Zuri", "address": {"country": "India", "street": "Pedda", "postal_code": "403721", "locality": null}}, "134": {"name": "Dropadi Inn", "address": {"country": "India", "street": "Main Street", "postal_code": "403702", "locality": "Palolem"}}, "139": {"name": "Affortel Magnum Resorts", "address": {"country": "India", "street": "Near Health Centre", "postal_code": "403515", "locality": "Candolim"}}, "138": {"name": "Silver Sands Beach Resort", "address": {"country": "India", "street": "Colva Beach", "postal_code": "403 708", "locality": "Colva"}}, "24": {"name": "FabHotel Baga II", "address": {"country": "India", "street": "Primo Bom Rd", "postal_code": "403516", "locality": "Baga"}}, "25": {"location": {"lat": 47.9607582, "lon": 8.0092808}, "name": "Champions Villa", "address": {"country": "India", "street": "Porvorim", "postal_code": "403206", "locality": "Bambolim"}}, "26": {"name": "Bay15 \u2013 A juSTa Resort, Goa", "address": {"country": "India", "street": "Oxdel Beach", "postal_code": "403004", "locality": "Dona Paula"}}, "27": {"name": "FabHotel Baga I", "address": {"country": "India", "street": "Baga Beach Rd", "postal_code": "403516", "locality": "Saunta Vaddo"}}, "20": {"location": {"lat": 15.1770682, "lon": 73.9476626}, "name": "Mobor Beach Resort", "address": {"country": "India", "street": "Mobor Beach", "postal_code": "403713", "locality": null}}, "21": {"location": {"lat": 15.5165537, "lon": 73.8328608}, "name": "Neo Majestic", "address": {"country": "India", "street": "Plot No 104, /18", "postal_code": "403521", "locality": "Porvorim"}}, "22": {"location": {"lat": 51.4665422, "lon": -0.291100303771443}, "name": "Hotel Sun Inn", "address": {"country": "India", "street": "Opp Maruti Temple", "postal_code": "403401", "locality": "Ponda"}}, "23": {"name": "Gods Gift Holiday Home", "address": {"country": "India", "street": "Girkarwaddo", "postal_code": "403507", "locality": "Arambol"}}, "28": {"name": "Ramsons Resort", "address": {"country": "India", "street": "Agonda Beach", "postal_code": "403702", "locality": null}}, "29": {"name": "Maria Paulo Guest House- Agonda", "address": {"country": "India", "street": "near Church, Agonda Beach", "postal_code": "403702", "locality": "Agonda"}}, "379": {"name": "DoubleTree by Hilton Hotel Goa - Arpora - Baga", "address": {"country": "India", "street": "Ximer", "postal_code": "403518", "locality": "Arpora"}}, "378": {"name": "Heritage Village Club Goa", "address": {"country": "India", "street": "Arossim Beach", "postal_code": "403712", "locality": "Cansaulim"}}, "371": {"location": {"lat": 31.6214506, "lon": 74.8791946}, "name": "Neelams The Grand", "address": {"country": "India", "street": "Post Office Road", "postal_code": "403516", "locality": "Calangute"}}, "370": {"location": {"lat": 15.2099428, "lon": 73.9340228025731}, "name": "Ramada Caravela Beach Resort", "address": {"country": "India", "street": "Varca Village Fatrade", "postal_code": "403721", "locality": "Varca"}}, "373": {"location": {"lat": 13.6998344, "lon": 123.4899439}, "name": "North 16 Goa", "address": {"country": "India", "street": "370 / 14 Porba Vaddo", "postal_code": "403516", "locality": "Calangute"}}, "372": {"name": "Keys Resort Ronil", "address": {"country": "India", "street": "Near Tito's Night Club", "postal_code": "403516", "locality": "Baga"}}, "375": {"name": "Casa De Goa Boutique Resort", "address": {"country": "India", "street": "Tivai Vaddo", "postal_code": "403516", "locality": "Calangute"}}, "374": {"name": "Vivanta by Taj - Holiday Village, Goa", "address": {"country": "India", "street": "Dando, Candolim", "postal_code": "403515", "locality": "Sinquerim"}}, "377": {"name": "The Zuri White Sands Goa Resort & Casino", "address": {"country": "India", "street": "Pedda", "postal_code": "403721", "locality": "Varca"}}, "376": {"name": "Citrus Goa", "address": {"country": "India", "street": "Umtavaddo", "postal_code": "412107", "locality": "Calangute"}}, "393": {"location": {"lat": 15.2446531, "lon": 73.9251932}, "name": "Taj Exotica Goa", "address": {"country": "India", "street": "Calwaddo", "postal_code": "403716", "locality": "Benaulim"}}, "392": {"name": "Vivanta by Taj - Fort Aguada, Goa", "address": {"country": "India", "street": "Dando, Candolim", "postal_code": "403515", "locality": "Sinquerim"}}, "88": {"location": {"lat": 26.55134925, "lon": -82.1970752106518}, "name": "Seabreeze Resort", "address": {"country": "India", "street": "Nr Taste of China, Opp Village Panchayat", "postal_code": "403515", "locality": null}}, "89": {"name": "Alor Holiday Resort", "address": {"country": "India", "street": "Near Poriat Football,Calngute,Naika Vaddo", "postal_code": "403516", "locality": "Calangute"}}, "82": {"name": "FabHotel Candolim Beach", "address": {"country": "India", "street": null, "postal_code": "403515", "locality": "Candolim"}}, "83": {"name": "La Vaiencia Beach Resort", "address": {"country": "India", "street": "Tembwada,", "postal_code": "403512", "locality": "Morjim"}}, "80": {"name": "Hotel Manoshanti", "address": {"country": "India", "street": "Behind EDC House", "postal_code": "403001", "locality": "Panaji"}}, "81": {"name": "Goyam Beach Resort", "address": {"country": "India", "street": "Patnem Beach", "postal_code": null, "locality": null}}, "86": {"name": "Art Resort Goa", "address": {"country": "India", "street": "Palolem Beach", "postal_code": "403702", "locality": "Palolem"}}, "87": {"name": "Mapple Viva Goa", "address": {"country": "India", "street": "Dr. Jack Sequeira Junction", "postal_code": "403516", "locality": "Calangute"}}, "84": {"location": {"lat": 23.8391411, "lon": 91.2852588}, "name": "Hotel Rajdhani", "address": {"country": "India", "street": "Dr Atmaram Borkar Road", "postal_code": "403001", "locality": "Panaji"}}, "85": {"name": "Pam's Pirache Resort", "address": {"country": "India", "street": "Turtle Beach, Temb Waddo", "postal_code": "403512", "locality": "Pernem"}}, "7": {"location": {"lat": 15.5337436, "lon": 73.7583311}, "name": "Hotel Calangute Towers", "address": {"country": "India", "street": "Dr. Jack Sequira Junction", "postal_code": "403516", "locality": "Calangute"}}, "245": {"name": "Nanutel Margao Hotel", "address": {"country": "India", "street": "Padre Miranda Road", "postal_code": "403601", "locality": "Margao"}}, "244": {"location": {"lat": 15.3032014, "lon": 73.9140523}, "name": "Martin's Comfort", "address": {"country": "India", "street": "Ranwaddo Betalbatim", "postal_code": "403713", "locality": null}}, "247": {"location": {"lat": 15.5610288, "lon": 73.7529166}, "name": "La Calypso Goa", "address": {"country": "India", "street": "7/129 B Saunta Vaddo", "postal_code": "403516", "locality": "Calangute"}}, "246": {"name": "William's Beach Retreat", "address": {"country": "India", "street": "4th Ward", "postal_code": "403708", "locality": "Colva"}}, "241": {"name": "Sandray Luxury Resort, Goa", "address": {"country": "India", "street": "Benaulim to Colva Road", "postal_code": "403708", "locality": "Benaulim"}}, "240": {"name": "Chances Resort and Casino", "address": {"country": "India", "street": "184-189 Machado's Cove", "postal_code": "400053", "locality": "Dona Paula"}}, "243": {"location": {"lat": 15.2445691, "lon": 73.928612}, "name": "Royal Benaulim", "address": {"country": "India", "street": "Calvaddo", "postal_code": "403716", "locality": "Benaulim"}}, "242": {"name": "Kingstork Beach Resort", "address": {"country": "India", "street": "Holiday Street, Gaura Vaddo", "postal_code": "403516", "locality": "Calangute"}}, "249": {"location": {"lat": -33.3233333, "lon": 151.3094444}, "name": "Little Palm Grove", "address": {"country": "India", "street": "Ashvem Beach", "postal_code": "403 527", "locality": "Mandrem"}}, "248": {"name": "The Fern Gardenia Resort, Canacona", "address": {"country": "India", "street": "Palolem Agonda Road Devabag", "postal_code": "403728", "locality": null}}, "179": {"name": "All Season's Goa", "address": {"country": "India", "street": "Prazers Street opp Prazers Resort", "postal_code": "403515", "locality": "Candolim"}}, "178": {"location": {"lat": 15.5397723, "lon": 73.7592017}, "name": "Paradise Village Beach Resort", "address": {"country": "India", "street": "Tivai Vaddo", "postal_code": "403516", "locality": "Calangute"}}, "177": {"location": {"lat": 15.0047006, "lon": 74.029005}, "name": "Bhakti Kutir", "address": {"country": "India", "street": "Palolem Beach", "postal_code": "403702", "locality": null}}, "176": {"location": {"lat": 46.1250985, "lon": 3.4244356}, "name": "L'Hotel Eden", "address": {"country": "India", "street": "Plot Number 12 & 13, La Oceana Colony", "postal_code": "403004", "locality": "Dona Paula"}}, "175": {"name": "Goa Highridge", "address": {"country": "India", "street": "171, Nagali Hills,", "postal_code": "403004", "locality": "Dona Paula"}}, "174": {"location": {"lat": 49.5171198, "lon": -105.2248821}, "name": "Horizon", "address": {"country": "India", "street": "Porba Vaddo", "postal_code": "403516", "locality": "Calangute"}}, "173": {"location": {"lat": 15.0062052, "lon": 74.0271056}, "name": "Sol de Goa", "address": {"country": "India", "street": "Road Opp Bank of India", "postal_code": "403515", "locality": "Nerul"}}, "172": {"name": "Safira River Front Resort", "address": {"country": "India", "street": "Morjim Beach Road", "postal_code": "403507", "locality": "Morjim"}}, "171": {"location": {"lat": 14.2855863, "lon": 120.992001011959}, "name": "Resort Village Royale", "address": {"country": "India", "street": "Near Dharwardkar Nursing Home", "postal_code": "403516", "locality": "Saligao"}}, "170": {"location": {"lat": 15.2551243, "lon": 73.9231961}, "name": "Lotus Beach Resort", "address": {"country": "India", "street": "Beach Road Via Maria Hall, Vaswaddo,", "postal_code": "403716", "locality": "Benaulim"}}, "182": {"name": "Oshins Guesthouse", "address": {"country": "India", "street": "Salcete", "postal_code": "403716", "locality": "Benaulim"}}, "183": {"location": {"lat": -23.00847705, "lon": -44.3541571509305}, "name": "Vila Nova Resort", "address": {"country": "India", "street": "1160/3 Mazal Vaddo", "postal_code": "403509", "locality": "Anjuna"}}, "180": {"name": "Famafa Beach Resort Hotel", "address": {"country": "India", "street": "Beach Road Khalcha waddo", "postal_code": "403512", "locality": "Arambol"}}, "181": {"name": "Casa Britona", "address": {"country": "India", "street": "217 Near Charmanos Badem", "postal_code": "403101", "locality": null}}, "186": {"name": "The Ronil Royale", "address": {"country": "India", "street": "Saunta Vaddo", "postal_code": "403516", "locality": "Calangute"}}, "187": {"location": {"lat": 15.1975462, "lon": 73.9413809}, "name": "Dona Sa Maria", "address": {"country": "India", "street": "Tamborim", "postal_code": "403 731", "locality": "Cavelossim"}}, "184": {"location": {"lat": -21.1062096, "lon": 165.3109146}, "name": "Hotel Nova Goa", "address": {"country": "India", "street": "Dr Atmaram Borkar Road", "postal_code": "403001", "locality": "Panaji"}}, "185": {"name": "Meraden La Oasis", "address": {"country": "India", "street": "near Football Ground, Flea Market Road", "postal_code": "403509", "locality": "Anjuna"}}, "188": {"name": "Surya Sangolda", "address": {"country": "India", "street": "Belavista Vaddo", "postal_code": "403511", "locality": "Sangolda"}}, "189": {"name": "Sun Kissed Resort", "address": {"country": "India", "street": "Naika Vaddo", "postal_code": "403 516", "locality": "Calangute"}}, "11": {"location": {"lat": -1.797999, "lon": -53.477903}, "name": "Prainha", "address": {"country": "India", "street": "Next To State Bank Of India", "postal_code": "403004", "locality": "Dona Paula"}}, "10": {"location": {"lat": 35.470476, "lon": -82.9163279}, "name": "Arabian Retreat", "address": {"country": "India", "street": "Guara Vaddo", "postal_code": "403516", "locality": "Calangute"}}, "13": {"name": "Divine Guest House", "address": {"country": "India", "street": "River-Cross", "postal_code": "403516", "locality": "Calangute"}}, "12": {"location": {"lat": 31.758442, "lon": -106.4897093}, "name": "El Paso Hotel", "address": {"country": "India", "street": "484 Compal Colony", "postal_code": "403001", "locality": "Panaji"}}, "15": {"name": "Julma Resort", "address": {"country": "India", "street": "Saunta Wada,Baga", "postal_code": "403516", "locality": "Calangute"}}, "14": {"name": "Stonewater Eco Resort", "address": {"country": "India", "street": "Karma Woodhouse Estae", "postal_code": "403516", "locality": "Bogmalo"}}, "17": {"location": {"lat": 15.6711262, "lon": 73.7095314}, "name": "Mandrem Beach Resort", "address": {"country": "India", "street": "Junas Waddo, After Mandrem Market", "postal_code": "403527", "locality": "Mandrem"}}, "16": {"name": "Nakita Resort", "address": {"country": "India", "street": "Umta Vaddo", "postal_code": "403516", "locality": "Calangute"}}, "19": {"location": {"lat": 30.62665, "lon": -87.0532369}, "name": "Mike's Place", "address": {"country": "India", "street": "Opp: Dona Syliva Resort", "postal_code": "403731", "locality": "Cavelossim"}}, "18": {"name": "Sterling Goa India Days Inn", "address": {"country": "India", "street": "Vagator Beach", "postal_code": "403511", "locality": "Mapusa"}}, "62": {"location": {"lat": 22.19618385, "lon": 113.5472095}, "name": "Santo Antonio Hotel", "address": {"country": "India", "street": "Gaurovaddo", "postal_code": "403516", "locality": "Calangute"}}, "322": {"name": "Jasminn by Mango Hotels", "address": {"country": "India", "street": "No 79 Nagvaddo", "postal_code": "403713", "locality": "Betalbatim"}}, "323": {"location": {"lat": 38.7609975, "lon": -9.39594633426498}, "name": "Resort Lagoa Azul", "address": {"country": "India", "street": "Little Baga Arpora", "postal_code": "403518", "locality": "Baga"}}, "320": {"name": "Ondas do Mar Beach Resort", "address": {"country": "India", "street": "Holiday Street, Gauravaddo", "postal_code": "403516", "locality": "Calangute"}}, "321": {"location": {"lat": 37.4506705, "lon": 25.3297131}, "name": "Mykonos Blu", "address": {"country": "India", "street": "Bagawada", "postal_code": "403516", "locality": "Baga"}}, "326": {"location": {"lat": 15.5453792, "lon": 73.7564642}, "name": "Calangute Residency", "address": {"country": "India", "street": null, "postal_code": "403516", "locality": "Calangute"}}, "327": {"name": "Silver Sands Holiday Village", "address": {"country": "India", "street": "Murodd Waddo", "postal_code": "403515", "locality": "Candolim"}}, "324": {"name": "Ginger Goa", "address": {"country": "India", "street": "Plot No. 37, 38", "postal_code": null, "locality": "Panaji"}}, "325": {"location": {"lat": 15.5337235, "lon": 73.7597747}, "name": "The Park Calangute Goa", "address": {"country": "India", "street": "Holiday Street, Lane opposite Calangute Mall", "postal_code": "403516", "locality": "Calangute"}}, "328": {"location": {"lat": -34.909244, "lon": 138.5968076}, "name": "The O Hotel", "address": {"country": "India", "street": "S.No. 114/1 Dando", "postal_code": "403515", "locality": "Candolim"}}, "329": {"location": {"lat": 15.5643863, "lon": 73.7593353}, "name": "Resort Rio", "address": {"country": "India", "street": "Tambudki", "postal_code": "403518", "locality": "Arpora"}}, "201": {"location": {"lat": 15.276867, "lon": 73.9164472}, "name": "Colva Beach Resort", "address": {"country": "India", "street": "Colva", "postal_code": "403708", "locality": "Colva"}}, "200": {"name": "Planet Hollywood Beach Resort", "address": {"country": "India", "street": "A-8, Asconwaddo", "postal_code": "403713", "locality": "Utorda"}}, "203": {"location": {"lat": 15.2620816, "lon": 73.930253}, "name": "Hotel Failaka", "address": {"country": "India", "street": "Adsulim, Benaulim", "postal_code": null, "locality": null}}, "202": {"location": {"lat": 28.2070524, "lon": 83.9627991}, "name": "Hotel Gautam", "address": {"country": "India", "street": "Off-Chogm Road,", "postal_code": "403705", "locality": "Porvorim"}}, "205": {"location": {"lat": 41.2198568, "lon": -8.55457352535391}, "name": "Palacete Rodrigues", "address": {"country": "India", "street": "Mazal Vaddo", "postal_code": "403509", "locality": "Anjuna"}}, "204": {"name": "Nilaya Hermitage", "address": {"country": "India", "street": "Arpora Bhati", "postal_code": "403518", "locality": "Arpora"}}, "207": {"location": {"lat": -6.8891571, "lon": 107.5821297}, "name": "Hotel Surya Palace", "address": {"country": "India", "street": "Near Durga Petrol Pump", "postal_code": "403602", "locality": null}}, "206": {"name": "Belle Wista: Enviro Green Resort", "address": {"country": "India", "street": "162, Belle Wista Wado, Sangolda", "postal_code": "403511", "locality": null}}, "209": {"name": "Coco Shambhala", "address": {"country": "India", "street": "Patrimonio", "postal_code": "403 114", "locality": null}}, "208": {"name": "Alegria - The Goan Village", "address": {"country": "India", "street": "Next to Health Centre", "postal_code": "403515", "locality": "Candolim"}}, "77": {"name": "A Concha Resort", "address": {"country": "India", "street": "Four Roads", "postal_code": "403708", "locality": "Calangute"}}, "76": {"name": "Exotic Palms", "address": {"country": "India", "street": "Naika Vado", "postal_code": "403516", "locality": "Calangute"}}, "75": {"name": "Jymis Cottages", "address": {"country": "India", "street": "Colva Beach", "postal_code": "403708", "locality": "Colva"}}, "74": {"name": "Star Beach Resort Goa", "address": {"country": "India", "street": "Near Foot Ball Ground, Colva Beach", "postal_code": "403708", "locality": "Colva"}}, "73": {"location": {"lat": 28.2042533, "lon": 83.9653739}, "name": "Hotel Green Park", "address": {"country": "India", "street": "Mapusa Panaji Road, Guirim Bypass Junction, Mapusa", "postal_code": "403507", "locality": "Mapusa"}}, "72": {"location": {"lat": 25.1498088, "lon": 73.4648138}, "name": "The Grand Chandra Resort", "address": {"country": "India", "street": "Baga Calangute Road", "postal_code": "403516", "locality": "Baga"}}, "71": {"location": {"lat": 14.9910591, "lon": 74.0428454}, "name": "Margao Residency", "address": {"country": "India", "street": "Margao", "postal_code": "403001", "locality": "Panaji"}}, "70": {"location": {"lat": 15.21898425, "lon": 73.9333934043215}, "name": "Goa Beach House", "address": {"country": "India", "street": "Fatrade Beach", "postal_code": "403721", "locality": "Varca"}}, "79": {"location": {"lat": 15.599258, "lon": 73.7433042510629}, "name": "Omega Beach Resort", "address": {"country": "India", "street": "Plot No 372/1-A,Village Anujuna", "postal_code": "403509", "locality": null}}, "78": {"name": "Aldeia Bello", "address": {"country": "India", "street": "Cobrawado, Calangute Baga - North Goa", "postal_code": "403516", "locality": "Baga"}}, "2": {"location": {"lat": 53.08258735, "lon": -2.40228546503876}, "name": "Apple House", "address": {"country": "India", "street": null, "postal_code": "403518", "locality": "Arpora"}}, "8": {"location": {"lat": 15.5402383, "lon": 73.7582295}, "name": "NV Beach Resort", "address": {"country": "India", "street": "Maddo Vaddo", "postal_code": "403516", "locality": "Calangute"}}, "68": {"location": {"lat": 37.4195303, "lon": 24.8773022}, "name": "Dolphin Bay Hotel", "address": {"country": "India", "street": "Quedevelim, Reis Magos, Verem", "postal_code": "403114", "locality": null}}, "120": {"name": "Resorte de Tio Carmino", "address": {"country": "India", "street": "Gaura Vaddo", "postal_code": "403516", "locality": "Calangute"}}, "121": {"location": {"lat": 41.5794921, "lon": -1.11639118160642}, "name": "Paulino Hotel", "address": {"country": "India", "street": "Main Road, Margoa", "postal_code": null, "locality": null}}, "122": {"name": "Calangute Annex", "address": {"country": "India", "street": "Next to Calangute Beach", "postal_code": "403516", "locality": "Calangute"}}, "123": {"location": {"lat": -8.4353173, "lon": -34.9817608}, "name": "Summerville Beach Resort", "address": {"country": "India", "street": "Taj Holiday Village Road,Dando,", "postal_code": "403515", "locality": "Candolim"}}, "124": {"location": {"lat": 41.8425132, "lon": 2.1991519}, "name": "La Gulls Court", "address": {"country": "India", "street": "Beach Road, 474/1", "postal_code": "403506", "locality": "Vagator"}}, "125": {"name": "The Byke Old Anchor Resort", "address": {"country": "India", "street": "Cavelossim Beach", "postal_code": "403731", "locality": "Cavelossim"}}, "126": {"location": {"lat": 15.5138754, "lon": 73.7704994}, "name": "Valentines Retreat", "address": {"country": "India", "street": "Sequeira waddo", "postal_code": "403 515", "locality": "Candolim"}}, "127": {"location": {"lat": 26.445838, "lon": -81.8147689}, "name": "Resort Park Avenue", "address": {"country": "India", "street": "Baga Road, near Infantaria Bakery", "postal_code": "403516", "locality": "Calangute"}}, "128": {"name": "Colonia Jose' Menino Resort", "address": {"country": "India", "street": "Zalor Fatrade Varca", "postal_code": "403721", "locality": "Varca"}}, "129": {"name": "Zinho's Beach Resort", "address": {"country": "India", "street": "H No. 7/3, Tito's Rd,", "postal_code": null, "locality": "Baga"}}, "69": {"name": "Smiley Holidays", "address": {"country": "India", "street": "Naikawaddo , Behind Neelam Glitz", "postal_code": "403516", "locality": "Calangute"}}, "319": {"name": "Palmarinha Resort", "address": {"country": "India", "street": "Porbavaddo", "postal_code": "403516", "locality": "Calangute"}}, "318": {"name": "The Country Club De Goa Resort", "address": {"country": "India", "street": "836/1 Sorrento Vaddo,Behind Starco Junction", "postal_code": "403509", "locality": null}}, "313": {"name": "Hotel Palacio De Goa", "address": {"country": "India", "street": "Dr Gama Pinto Road", "postal_code": "403001", "locality": "Panaji"}}, "312": {"name": "Royal Haathi Mahal", "address": {"country": "India", "street": "Cavelossim Beach,Salcette,", "postal_code": "403 731", "locality": "Cavelossim"}}, "311": {"location": {"lat": 15.21697195, "lon": 73.9322471764673}, "name": "Varca Palms Beach Resort", "address": {"country": "India", "street": "Teen Murti,Atrade", "postal_code": "403721", "locality": "Varca"}}, "310": {"name": "Hotel Colva Kinara", "address": {"country": "India", "street": "Near HDFC bank, Opp. Colva Football ground,D-Block, 4th ward", "postal_code": "403708", "locality": "Colva"}}, "317": {"name": "Novotel Goa Shrem Resort", "address": {"country": "India", "street": "Anna Waddo Main Candolim Road", "postal_code": "403515", "locality": "Candolim"}}, "316": {"location": {"lat": 15.4868443, "lon": 73.8095296}, "name": "Goa Marriott Resort & Spa", "address": {"country": "India", "street": "Post Box No 64", "postal_code": "403001", "locality": "Panaji"}}, "315": {"name": "Sonesta Inns", "address": {"country": "India", "street": "Anna Vaddo", "postal_code": "403515", "locality": "Candolim"}}, "314": {"name": "The Baga Marina", "address": {"country": "India", "street": "Saunta-Khobra Wado", "postal_code": "403516", "locality": "Baga"}}, "3": {"name": "Pride Sun Village Resort and Spa", "address": {"country": "India", "street": "Saquwadi Baga-Arpora", "postal_code": "403518", "locality": "Arpora"}}, "368": {"name": "Phoenix Park Inn Resort", "address": {"country": "India", "street": "Sequera Vado", "postal_code": "403515", "locality": "Candolim"}}, "369": {"location": {"lat": 15.2236677, "lon": 73.9336445}, "name": "Club Mahindra Varca Beach", "address": {"country": "India", "street": "Survey No 176/1,Varca Village", "postal_code": "403721", "locality": "Varca"}}, "366": {"location": {"lat": 15.31801725, "lon": 73.9010820103769}, "name": "Kenilworth Resort & Spa", "address": {"country": "India", "street": "PO Marjorda", "postal_code": "403713", "locality": "Utorda"}}, "367": {"name": "Whispering Palms Beach Resort", "address": {"country": "India", "street": "Sinquerim Beach", "postal_code": "403515", "locality": "Candolim"}}, "364": {"name": "Golden Tulip Goa Candolim", "address": {"country": "India", "street": "315/A/G1-G5 & 315/B/G1-G2, Bamon Vaddo", "postal_code": "403515", "locality": "Candolim"}}, "365": {"location": {"lat": 15.5328804, "lon": 73.7657478}, "name": "Ocean Palms Goa", "address": {"country": "India", "street": "Opposite Holiday Street", "postal_code": "403515", "locality": "Calangute"}}, "362": {"name": "Radisson Blu Resort Goa Cavelossim Beach", "address": {"country": "India", "street": "Cavelossim Beach", "postal_code": "403731", "locality": "Cavelossim"}}, "363": {"name": "Acron Waterfront Resort", "address": {"country": "India", "street": "On the seaward side of the Baga Bridge", "postal_code": "403515", "locality": "Baga"}}, "360": {"location": {"lat": 15.1382646, "lon": 73.9555793}, "name": "MAYFAIR Hideaway Spa Resort", "address": {"country": "India", "street": "Rangali, Betul", "postal_code": "403603", "locality": null}}, "361": {"name": "De Alturas Resort", "address": {"country": "India", "street": "Baman Vaddo", "postal_code": "403515", "locality": "Candolim"}}, "380": {"location": {"lat": 15.5063327, "lon": 73.7695608}, "name": "Santana Beach Resort", "address": {"country": "India", "street": "Sinquerim Rd Dando Beach", "postal_code": "403515", "locality": "Candolim"}}, "381": {"location": {"lat": 45.30179595, "lon": -75.9086958907086}, "name": "Country Inn & Suites By Carlson", "address": {"country": "India", "street": "Bamonvaddo", "postal_code": "403515", "locality": "Candolim"}}, "382": {"name": "Park Hyatt Goa Resort and Spa", "address": {"country": "India", "street": "Arossim Beach", "postal_code": "403712", "locality": "Cansaulim"}}, "383": {"name": "Holiday Inn Resort Goa", "address": {"country": "India", "street": "Mobor Beach", "postal_code": "403 731", "locality": "Cavelossim"}}, "384": {"name": "Resort Terra Paraiso", "address": {"country": "India", "street": "Gauravvaddo", "postal_code": "403516", "locality": "Calangute"}}, "385": {"location": {"lat": 15.3061824, "lon": 73.9110772}, "name": "Alila Diwa Goa", "address": {"country": "India", "street": "48/10 Adao Wado", "postal_code": "403713", "locality": null}}, "386": {"location": {"lat": 15.4514777, "lon": 73.8520395}, "name": "Grand Hyatt Goa", "address": {"country": "India", "street": "P.O. Goa University", "postal_code": "403206", "locality": "Bambolim"}}, "387": {"location": {"lat": 14.9891666, "lon": 74.0390884887883}, "name": "The LaLiT Golf & Spa Resort Goa", "address": {"country": "India", "street": "Raj Baga", "postal_code": "403702", "locality": null}}, "388": {"location": {"lat": 15.4564046, "lon": 73.8137390964196}, "name": "Cidade de Goa", "address": {"country": "India", "street": "Vainguinim Beach", "postal_code": "403004", "locality": "Dona Paula"}}, "389": {"name": "Lemon Tree Amarante Beach Resort, Goa", "address": {"country": "India", "street": "Vadi, Candolim", "postal_code": "403515", "locality": "Candolim"}}, "60": {"name": "Diana Resorts", "address": {"country": "India", "street": "Vagatur Beach", "postal_code": "403511", "locality": null}}, "61": {"name": "Carmo Lobo Beach Resort", "address": {"country": "India", "street": "Sequeria Vaddo Opp Candolim Health Centre", "postal_code": "403515", "locality": "Candolim"}}, "258": {"name": "Baywatch Beach Resort", "address": {"country": "India", "street": "Sernabatim Beach Road", "postal_code": "403708", "locality": "Colva"}}, "63": {"name": "Ala Goa Resort", "address": {"country": "India", "street": "Ranwaddo, Betalbatim, Near Coconut Grove,", "postal_code": "403713", "locality": null}}, "64": {"name": "Toor Resort", "address": {"country": "India", "street": "Mandrem Beach", "postal_code": "403527", "locality": "Mandrem"}}, "65": {"location": {"lat": 15.5691298, "lon": 73.7537219}, "name": "La Baga Beach Hotel", "address": {"country": "India", "street": "Baga Main Road, Kobra Vaddo", "postal_code": "403516", "locality": "Calangute"}}, "66": {"location": {"lat": -23.3537726, "lon": 43.6705662154762}, "name": "Sincro Hotel", "address": {"country": "India", "street": "Next to TWD Fatorda", "postal_code": "403602", "locality": "Margao"}}, "67": {"location": {"lat": 38.8652015, "lon": -9.0623635}, "name": "Casa de Morgado", "address": {"country": "India", "street": "House 115", "postal_code": "403710", "locality": "Cortalim"}}, "252": {"location": {"lat": 33.7952975, "lon": -116.4611242}, "name": "Royal Palms", "address": {"country": "India", "street": "Vasvado", "postal_code": "403716", "locality": "Benaulim"}}, "253": {"location": {"lat": 25.0544977, "lon": -77.3449064989464}, "name": "Coconut Grove", "address": {"country": "India", "street": "Betalbatim beach", "postal_code": "403713", "locality": null}}, "250": {"name": "LivingRoom by Seasons", "address": {"country": "India", "street": "Vagator Beach Road", "postal_code": "403509", "locality": "Vagator"}}, "251": {"name": "Cygnett Inn Celestiial", "address": {"country": "India", "street": "1168-O, Aguada - Siolim Rd", "postal_code": "403515", "locality": "Candolim"}}, "256": {"location": {"lat": 44.9517482, "lon": -92.9326812}, "name": "Hotel Windsor Bay", "address": {"country": "India", "street": "Calangute-Baga Beach Road", "postal_code": "403516", "locality": "Calangute"}}, "257": {"name": "Annapurna Vishram Dhaam", "address": {"country": "India", "street": "#1061/1 Sim Vaddo", "postal_code": null, "locality": "Anjuna"}}, "254": {"name": "Nirvana Hermitage", "address": {"country": "India", "street": "955/2 Pequen Pedden", "postal_code": "403509", "locality": "Anjuna"}}, "255": {"location": {"lat": 15.5262546, "lon": 73.7655134}, "name": "Banyan Tree Courtyard", "address": {"country": "India", "street": "1091, Escrivao Vaddo, Opp. Novotel Hotel", "postal_code": null, "locality": "Candolim"}}, "168": {"location": {"lat": 5.2133023, "lon": 103.2636234}, "name": "Turtle Beach Resort", "address": {"country": "India", "street": "H No 1435, Kannaikwado", "postal_code": "403512", "locality": "Morjim"}}, "169": {"name": "Empire Beach Resort Hotel", "address": {"country": "India", "street": "Lane from St. Anthonys Chapel", "postal_code": "403516", "locality": "Calangute"}}, "164": {"name": "Colonia de Braganza Resorts", "address": {"country": "India", "street": "Behind Plantain Leaf Restaurant,", "postal_code": "403516", "locality": "Calangute"}}, "165": {"location": {"lat": 33.6342563, "lon": -112.3213705}, "name": "Sun City Resort", "address": {"country": "India", "street": "Saunta Vaddo", "postal_code": "403516", "locality": "Saunta Vaddo"}}, "166": {"name": "Sai Residency Anjuna", "address": {"country": "India", "street": "Pequem Peddem, German Bakery Road", "postal_code": "403509", "locality": "Anjuna"}}, "167": {"location": {"lat": 15.1725498, "lon": 73.9444654}, "name": "Shikara Beach Resort", "address": {"country": "India", "street": "Luisa By the Sea", "postal_code": "403731", "locality": "Cavelossim"}}, "160": {"location": {"lat": 15.557429, "lon": 73.7537389}, "name": "Casa Baga", "address": {"country": "India", "street": "40/7 Saunta Vaddo", "postal_code": "403516", "locality": null}}, "161": {"name": "Radisson Goa Candolim", "address": {"country": "India", "street": "Fort Aguada Road", "postal_code": "403515", "locality": "Candolim"}}, "162": {"name": "Alor Grande Holiday Resort", "address": {"country": "India", "street": "Opp Primary Health Centre", "postal_code": "403515", "locality": "Candolim"}}, "163": {"name": "Paros by Amarya", "address": {"country": "India", "street": "Temba Vaddo", "postal_code": "403512", "locality": "Morjim"}}, "9": {"name": "Xavier Beach Resort", "address": {"country": "India", "street": "Fort Aguada Road, Opp State Bank Of India", "postal_code": "403515", "locality": "Candolim"}}, "357": {"name": "Shanti Morada", "address": {"country": "India", "street": "8 / 123, Bairo Alto, Vaddo", "postal_code": "403511", "locality": "Saligao"}}, "356": {"location": {"lat": 15.5206071, "lon": 73.7696516}, "name": "Grand Mercure Goa Shrem Resort", "address": {"country": "India", "street": "Pinto Waddo", "postal_code": "403515", "locality": "Candolim"}}, "355": {"name": "Lazylagoon Sarovar Portico Suites", "address": {"country": "India", "street": "Baga,", "postal_code": "403518", "locality": "Baga"}}, "354": {"name": "Deltin Suites", "address": {"country": "India", "street": "Nerul-Candolim Road, Nerul", "postal_code": "403114", "locality": "Panaji"}}, "353": {"location": {"lat": 33.5939157, "lon": -7.6176293}, "name": "Casablanca", "address": {"country": "India", "street": "Wadi", "postal_code": "403515", "locality": "Candolim"}}, "352": {"name": "Osborne Resort Goa", "address": {"country": "India", "street": "Near St. Anthony's Chapel Gauravaddo", "postal_code": "403516", "locality": "Calangute"}}, "351": {"location": {"lat": 33.7988546, "lon": -117.9011848}, "name": "Tangerine Resort", "address": {"country": "India", "street": "Naiko Wado,", "postal_code": "403516", "locality": "Calangute"}}, "350": {"location": {"lat": 15.5367716, "lon": 73.7627736}, "name": "SinQ Beach Resort", "address": {"country": "India", "street": "Opposite to Don Bosco Hostel", "postal_code": "403516", "locality": "Calangute"}}, "359": {"name": "Santa Monica Resorte", "address": {"country": "India", "street": "Poriat", "postal_code": "403516", "locality": "Calangute"}}, "358": {"name": "Colonia Santa Maria (CSM)", "address": {"country": "India", "street": null, "postal_code": "403516", "locality": "Baga"}}, "216": {"name": "Neemrana's Cabana Dempo", "address": {"country": "India", "street": "H No. 522, Firguem Bhat, Palem, Siridao Beach", "postal_code": "403001", "locality": "Panaji"}}, "217": {"location": {"lat": 15.4978491, "lon": 73.8282726}, "name": "The Menino Regency", "address": {"country": "India", "street": "Dr. Dada Vaidya Road", "postal_code": "403001", "locality": "Panaji"}}, "214": {"name": "Raman Cottages", "address": {"country": "India", "street": "Khobrawaddo", "postal_code": "403516", "locality": "Calangute"}}, "215": {"name": "Deltin Palms", "address": {"country": "India", "street": "542 / 1, Village Penha-De-Franca, Brittona", "postal_code": "403 101", "locality": "Panaji"}}, "212": {"name": "Banyan Tree Yoga Goa", "address": {"country": "India", "street": "Near Mandrem football ground,ashve wada", "postal_code": "403512", "locality": "Mandrem"}}, "213": {"location": {"lat": 42.9769643, "lon": -70.6144199957387}, "name": "Oceanic Hotel", "address": {"country": "India", "street": "Timbawadu", "postal_code": "403702", "locality": null}}, "210": {"name": "Prazeres Resorts", "address": {"country": "India", "street": "Marquis Waddo, beyond Nerul Bridge", "postal_code": "403515", "locality": "Candolim"}}, "211": {"name": "Kismat Mahal", "address": {"country": "India", "street": "E-1/221,Gauravaddo", "postal_code": "403516", "locality": "Calangute"}}, "218": {"name": "Bambolim Beach Resort", "address": {"country": "India", "street": "Nunes Beach Properties", "postal_code": "403005", "locality": "Panaji"}}, "219": {"name": "Ticlo Resorts", "address": {"country": "India", "street": "Opp Calangute Association Calangute-Baga Rd Umtavaddo", "postal_code": "403516", "locality": "Calangute"}}, "289": {"location": {"lat": 15.4973392, "lon": 73.8249159}, "name": "Hotel Fidalgo", "address": {"country": "India", "street": "18 June Road,", "postal_code": "403001", "locality": "Panaji"}}, "288": {"name": "Joia Do Mar Resort", "address": {"country": "India", "street": "Porba Vaddo", "postal_code": "403516", "locality": "Calangute"}}, "4": {"name": "Fahrenheit Hotels and Resorts", "address": {"country": "India", "street": "Calangute - Baga Road, Casa Goa Lane", "postal_code": "403516", "locality": "Calangute"}}, "281": {"name": "Soul Vacation Resort and Spa", "address": {"country": "India", "street": "Ward No. 4", "postal_code": "403708", "locality": "Colva"}}, "280": {"name": "BEST WESTERN Devasthali Resort Goa", "address": {"country": "India", "street": "Village Issorcim, Hollant Beach", "postal_code": "403712", "locality": "Cansaulim"}}, "283": {"name": "Sukhmantra Resort and Spa", "address": {"country": "India", "street": "317/C, Bamon Vaddo", "postal_code": "415 515", "locality": "Candolim"}}, "282": {"name": "Lambana Resort", "address": {"country": "India", "street": "Near Sao Joao Baptista Chapel", "postal_code": "403516", "locality": "Calangute"}}, "285": {"name": "Ruffles Beach Resort", "address": {"country": "India", "street": "Fort Aguada Road", "postal_code": "403515", "locality": "Candolim"}}, "284": {"location": {"lat": 15.6494837, "lon": 73.7159163}, "name": "Rococco Ashvem", "address": {"country": "India", "street": "Ashvem Beach", "postal_code": "403527", "locality": "Pernem"}}, "287": {"name": "Grandeur de Sanchi Beach Resort", "address": {"country": "India", "street": "Holiday Street, Gaurawaddo", "postal_code": "403516", "locality": "Calangute"}}, "286": {"location": {"lat": 15.5441121, "lon": 73.7617233254921}, "name": "Adamo The Bellus Goa", "address": {"country": "India", "street": "Naika Vaddo", "postal_code": "403516", "locality": "Calangute"}}, "263": {"name": "The Diwa Club by Alila", "address": {"country": "India", "street": "Adao Waddo", "postal_code": "403713", "locality": "Majorda"}}, "262": {"name": "Pousada Tauma", "address": {"country": "India", "street": "Porba Vaddo", "postal_code": null, "locality": "Calangute"}}, "261": {"location": {"lat": 19.1633302, "lon": 72.8509569}, "name": "Hotel Panchsheel", "address": {"country": "India", "street": "Near Harimandir, Malbhat", "postal_code": "403 601", "locality": "Margao"}}, "260": {"location": {"lat": 42.98588325, "lon": -7.589178}, "name": "Hotel Santiago", "address": {"country": "India", "street": "Cobrawaddo", "postal_code": "403516", "locality": "Calangute"}}, "267": {"location": {"lat": 15.497476, "lon": 73.7715002}, "name": "Bougainvillea Guest House Goa", "address": {"country": "India", "street": "83C Sinquerim Bardez", "postal_code": "403519", "locality": "Candolim"}}, "266": {"name": "Montego Bay Beach Village", "address": {"country": "India", "street": "Vithaldas Vaddo", "postal_code": "403512", "locality": "Morjim"}}, "265": {"location": {"lat": 15.5026494, "lon": 73.7709195}, "name": "Aldeia Santa Rita", "address": {"country": "India", "street": "Dando", "postal_code": "403515", "locality": "Candolim"}}, "264": {"location": {"lat": 15.5848408, "lon": 73.7390694}, "name": "Villa Anjuna", "address": {"country": "India", "street": "Anjuna Beach Rd.", "postal_code": "403 509", "locality": "Anjuna"}}, "269": {"location": {"lat": 46.18874495, "lon": -123.828319297029}, "name": "Hotel Astoria", "address": {"country": "India", "street": null, "postal_code": "403 507", "locality": "Assagao"}}, "268": {"name": "Country Inn & Suites By Carlson - Goa Panjim", "address": {"country": "India", "street": "Plot no 31, EDC, Patto Plaza, Panjim", "postal_code": "403001", "locality": "Panaji"}}, "59": {"location": {"lat": 44.0210309, "lon": 12.6362485}, "name": "Hakuna Matata Beach Resort", "address": {"country": "India", "street": "Vithaldas Vaddo", "postal_code": "403512", "locality": "Morjim"}}, "58": {"name": "Palmgrove Residency", "address": {"country": "India", "street": "House Number 142 Dias Ward", "postal_code": "403 731", "locality": null}}, "55": {"location": {"lat": 52.5226997, "lon": 13.3882776}, "name": "Hotel Riverside", "address": {"country": "India", "street": "Baga Beach", "postal_code": "403516", "locality": "Baga"}}, "54": {"location": {"lat": 28.50704415, "lon": -81.5199202791392}, "name": "Down \"Da\" Village", "address": {"country": "India", "street": "Road Opp. Cafe Coffee Day", "postal_code": null, "locality": "Candolim"}}, "57": {"name": "Antonios Paradise", "address": {"country": "India", "street": "Ashvem Beach", "postal_code": null, "locality": "Mandrem"}}, "56": {"name": "Jivana Plantation", "address": {"country": "India", "street": "Dandos Wadda", "postal_code": "403527", "locality": "Mandrem"}}, "51": {"location": {"lat": 33.75152325, "lon": -116.718375758842}, "name": "Inspiration Guest House", "address": {"country": "India", "street": "Khobra Vaddo,", "postal_code": "403516", "locality": "Calangute"}}, "50": {"location": {"lat": 15.4144558, "lon": 73.9871632}, "name": "Farmagudi Residency", "address": {"country": "India", "street": "Opposite Pharmacy College", "postal_code": "403401", "locality": "Ponda"}}, "53": {"location": {"lat": 33.84812405, "lon": -116.853142598007}, "name": "Silent Resort", "address": {"country": "India", "street": "Prova Vaddo", "postal_code": "403516", "locality": "Calangute"}}, "52": {"location": {"lat": 33.61198615, "lon": -117.925624950626}, "name": "Peninsula Beach Resort", "address": {"country": "India", "street": "Holiday Street", "postal_code": "403516", "locality": "Calangute"}}, "115": {"location": {"lat": 36.797562, "lon": -76.0074809}, "name": "Clarion the Beach", "address": {"country": "India", "street": "336/0, Caluwaddo", "postal_code": "403716", "locality": "Benaulim"}}, "114": {"location": {"lat": 15.5321304, "lon": 73.7646137}, "name": "Sharanam Green", "address": {"country": "India", "street": "124/3 Guaravaddo Candolim Road", "postal_code": "403516", "locality": "Calangute"}}, "117": {"location": {"lat": -35.7277085, "lon": 150.196705551842}, "name": "Ave Maria Beach Resort", "address": {"country": "India", "street": "Candolim Beach Road", "postal_code": "403515", "locality": "Candolim"}}, "116": {"location": {"lat": 15.2575719, "lon": 73.9203669}, "name": "L'Amour Beach Resort", "address": {"country": "India", "street": "Benaulim Beach Road", "postal_code": "403716", "locality": "Benaulim"}}, "111": {"name": "Sodder's Gloria Anne", "address": {"country": "India", "street": "Taj Hotel Road Opp Acron Shopping Mall", "postal_code": "403516", "locality": "Candolim"}}, "110": {"name": "Sodder's Renton Manor", "address": {"country": "India", "street": "Tambudki Village", "postal_code": "403515", "locality": "Arpora"}}, "113": {"name": "Mayem Lake View", "address": {"country": "India", "street": "Mapusa", "postal_code": null, "locality": "Bicholim"}}, "112": {"name": "Maizons Lake View Resorts", "address": {"country": "India", "street": "502/1 Sankawadi, Arpora", "postal_code": "403518", "locality": "Arpora"}}, "119": {"name": "Senhor Angelo Resort", "address": {"country": "India", "street": "Umta Vaddo", "postal_code": "403516", "locality": "Calangute"}}, "118": {"location": {"lat": 7.8291678, "lon": 98.302766}, "name": "Boomerang Resort", "address": {"country": "India", "street": "Near Ajaba Temple", "postal_code": "403527", "locality": "Mandrem"}}, "308": {"name": "Seashell Beach Suites", "address": {"country": "India", "street": "Vaddy", "postal_code": "403515", "locality": "Candolim"}}, "309": {"name": "Ancora Beach Resort", "address": {"country": "India", "street": "Near Club Tito's,baga beach,goa.", "postal_code": "403516", "locality": "Calangute"}}, "300": {"location": {"lat": 15.5169614, "lon": 73.7697771}, "name": "Highland Beach Resort", "address": {"country": "India", "street": "Sequeira Vaddo,Near Primary Health Center", "postal_code": "403515", "locality": "Candolim"}}, "301": {"name": "Viva Calangute", "address": {"country": "India", "street": "155 / 9", "postal_code": "403516", "locality": "Calangute"}}, "302": {"name": "Azzure By Spree Hotels", "address": {"country": "India", "street": "H No. 2/16A Naika Vaddo", "postal_code": "403516", "locality": "Calangute"}}, "303": {"name": "Beleza...by the beach", "address": {"country": "India", "street": "Colva Beach", "postal_code": "403708", "locality": "Betalbatim"}}, "304": {"name": "Marbela Beach Resort", "address": {"country": "India", "street": "H.No 782 Gawade Wado", "postal_code": "403705", "locality": "Morjim"}}, "305": {"name": "Vivanta by Taj - Panaji", "address": {"country": "India", "street": "Off D. B. Bandodkar Road", "postal_code": "403001", "locality": "Panaji"}}, "306": {"location": {"lat": 15.238719, "lon": 73.9297140774651}, "name": "Club Mahindra Emerald Palms", "address": {"country": "India", "street": "Pedda, Uttor Doxi, Varca Drafidila Layout, 4th Block", "postal_code": null, "locality": "Varca"}}, "307": {"name": "Dona Sylvia Beach Resort", "address": {"country": "India", "street": "Cavelossim Beach", "postal_code": "403731", "locality": "Cavelossim"}}, "229": {"location": {"lat": 37.38784, "lon": -121.997351796283}, "name": "16 Degrees North", "address": {"country": "India", "street": "574 / 1, Riverside Street, Baga Riverview", "postal_code": "403516", "locality": "Baga"}}, "228": {"location": {"lat": 15.5129019, "lon": 73.7686912}, "name": "Casa Candolim", "address": {"country": "India", "street": "854 Camotim Vado", "postal_code": "403515", "locality": "Candolim"}}, "227": {"name": "Opus by the Meraden", "address": {"country": "India", "street": "Flea Market Road", "postal_code": null, "locality": "Anjuna"}}, "226": {"name": "Graciano Cottages", "address": {"country": "India", "street": "4th Ward, Colva Beach", "postal_code": "403708", "locality": "Colva"}}, "225": {"name": "Chalston Beach Resort", "address": {"country": "India", "street": "Beach Street , Khobra Vaddo , Calangute", "postal_code": "403516", "locality": "Calangute"}}, "224": {"name": "The Golden Crown Hotel & Spa Colva", "address": {"country": "India", "street": "Beach Road", "postal_code": "403708", "locality": "Colva"}}, "223": {"location": {"lat": 15.31800675, "lon": 73.9010848649478}, "name": "Longuinhos Beach Resort", "address": {"country": "India", "street": "Colva Beach", "postal_code": "403 708", "locality": "Colva"}}, "222": {"name": "Goa - Club Estadia, A Sterling Holidays Resort", "address": {"country": "India", "street": null, "postal_code": "403521", "locality": "Alto-Porvorim"}}, "221": {"location": {"lat": 26.2714628, "lon": -80.181808457009}, "name": "Coconut Creek", "address": {"country": "India", "street": "Bimmut Ward", "postal_code": "403806", "locality": "Bogmalo"}}, "220": {"name": "Devaaya Ayurveda Retreat", "address": {"country": "India", "street": "Malar", "postal_code": "403403", "locality": null}}, "391": {"location": {"lat": 15.1566824, "lon": 73.9484633}, "name": "The Leela Goa", "address": {"country": "India", "street": "Mobor", "postal_code": "403731", "locality": "Cavelossim"}}, "390": {"name": "Estrela Do Mar Beach Resort", "address": {"country": "India", "street": "Khobra Vaddo", "postal_code": "403516", "locality": "Calangute"}}, "151": {"name": "Palm Beach Lifestyle Resort", "address": {"country": "India", "street": "Palm Beach Lifestyle Resort", "postal_code": "403702", "locality": "Agonda"}}, "150": {"name": "Goveia Holiday Homes", "address": {"country": "India", "street": "Lane Opposite Cafe Coffee Day", "postal_code": "403515", "locality": "Candolim"}}, "153": {"location": {"lat": 36.4564695, "lon": -5.057796}, "name": "Sun Park Resort", "address": {"country": "India", "street": "Cabrawaddo, Off Calangute Baga Road", "postal_code": "403516", "locality": "Calangute"}}, "152": {"location": {"lat": 15.534982, "lon": 73.7645422}, "name": "Hotel Dona Terezinha", "address": {"country": "India", "street": "Gaura Vaddo", "postal_code": "403516", "locality": "Calangute"}}, "155": {"name": "Tito's Beach Retreat (A Boutique Resort)", "address": {"country": "India", "street": "Dando Vaddo, Near Kingfisher Villa, North Goa", "postal_code": "403515", "locality": "Candolim"}}, "154": {"location": {"lat": 38.01489035, "lon": -3.37297765538333}, "name": "Hotel La Paz Gardens", "address": {"country": "India", "street": "Swatantra Path", "postal_code": "403802", "locality": "Vasco da Gama"}}, "157": {"location": {"lat": 43.50356985, "lon": 16.4757082320254}, "name": "Hotel Delmon", "address": {"country": "India", "street": "Caetano de Albuquerque Road", "postal_code": "403001", "locality": "Panaji"}}, "156": {"location": {"lat": 15.2769945, "lon": 73.9146863}, "name": "Colva Residency", "address": {"country": "India", "street": "4th Ward", "postal_code": "403708", "locality": "Colva"}}, "159": {"location": {"lat": 15.5257958, "lon": 73.7621505}, "name": "Aashyana Lakhanpal", "address": {"country": "India", "street": "Escrivao Vaddo, Candolim, Bardez", "postal_code": "403515", "locality": "Candolim"}}, "158": {"location": {"lat": 15.5691298, "lon": 73.7537219}, "name": "Royal Monterio", "address": {"country": "India", "street": "Arpora-Baga Road", "postal_code": "403 518", "locality": "Calangute"}}, "48": {"name": "Hotel Riversal by the Sea", "address": {"country": "India", "street": "Post Zuem, Betul", "postal_code": "403603", "locality": null}}, "49": {"location": {"lat": 15.5613383, "lon": 73.7537244}, "name": "Lua Nova Hotel", "address": {"country": "India", "street": "Saunta Vaddo", "postal_code": "403516", "locality": "Calangute"}}, "46": {"location": {"lat": 38.9213763, "lon": -77.0419413}, "name": "Hotel Jyoti Plaza", "address": {"country": "India", "street": "Isidorio Bapista Road,", "postal_code": "403601", "locality": "Ponda"}}, "47": {"location": {"lat": 22.6422014, "lon": 88.4323903}, "name": "Ashok Plaza Hotel", "address": {"country": "India", "street": "Samrat Ashok Theater Complex 18th June Road", "postal_code": "403001", "locality": "Panaji"}}, "44": {"name": "The Mandovi Riviera", "address": {"country": "India", "street": "D. B. Marg", "postal_code": null, "locality": "Panaji"}}, "45": {"location": {"lat": 53.74776755, "lon": -0.303794885206649}, "name": "Embassy Hotel", "address": {"country": "India", "street": "Ruamidio Gracia Road", "postal_code": "403001", "locality": "Panaji"}}, "42": {"location": {"lat": 13.0363286, "lon": 80.2679907}, "name": "Hotel Picnic Plaza", "address": {"country": "India", "street": "181/1, Bella-Vista", "postal_code": "403511", "locality": null}}, "43": {"location": {"lat": 15.600274, "lon": 73.7371949}, "name": "Jolly Jolly Lester", "address": {"country": "India", "street": "H No. 511, (5)", "postal_code": "403519", "locality": "Vagator"}}, "40": {"location": {"lat": 15.55562435, "lon": 73.7527819997303}, "name": "The Baga Beach Resort", "address": {"country": "India", "street": "7/225/a Saunta Vaddo", "postal_code": null, "locality": "Calangute"}}, "41": {"name": "Shawnels Beach Resort", "address": {"country": "India", "street": "Ourem, Palolem Beach", "postal_code": "403702", "locality": "Palolem"}}, "5": {"location": {"lat": 15.0034487, "lon": 74.0289278}, "name": "Palolem Inn", "address": {"country": "India", "street": "Opp German Bakery, Ourem", "postal_code": "403702", "locality": "Palolem"}}}